service,name,longitude,latitude,location_type,file_path,5m_area,5m_total_pop,5m_reachfactor,10m_area,10m_total_pop,10m_reachfactor,15m_area,15m_total_pop,15m_reachfactor,20m_area,20m_total_pop,20m_reachfactor,25m_area,25m_total_pop,25m_reachfactor,30m_area,30m_total_pop,30m_reachfactor
Barnsley Metropolitan Borough Council,Cudworth,-1.4193452,53.5768238,destination,248546.66,947.0,0.712,914357.91,4447.0,0.6549,2347003.77,6403.0,0.7471,4068971.72,9419.0,0.7285,6312228.72,12033.0,0.7233,10126593.38,16502.0,0.8058
Barnsley Metropolitan Borough Council,Darfield,-1.3733089,53.5334979,destination,334186.98,1415.0,0.9574,1151878.33,3739.0,0.825,2474771.49,6948.0,0.7877,4330567.74,8441.0,0.7754,7205930.54,9845.0,0.8257,10454144.42,10858.0,0.8319
Barnsley Metropolitan Borough Council,Dodworth,-1.526522,53.542415,destination,328915.3,1001.0,0.9423,1399661.25,3188.0,1.0,3321344.97,5640.0,1.0,5539218.29,6559.0,0.9918,8688961.42,8260.0,0.9957,13287604.6,10557.0,1.0
Barnsley Metropolitan Borough Council,Goldthorpe,-1.3055539,53.5341111,destination,363308.49,1722.0,1.0,1405427.4,4565.0,1.0,3172885.89,6188.0,1.0,5425010.3,9307.0,0.9713,7881549.08,13600.0,0.9032,11540776.74,19394.0,0.9184
Barnsley Metropolitan Borough Council,Grimethorpe,-1.3815565,53.5753325,destination,356475.72,1272.0,1.0,1341212.88,2929.0,0.9606,2700519.54,4536.0,0.8596,4262015.31,5149.0,0.7631,6006846.83,5419.0,0.6883,8564663.63,7592.0,0.6816
Barnsley Metropolitan Borough Council,Hoyland,-1.4387762,53.5001391,destination,382741.42,1693.0,1.0,1475637.08,6074.0,1.0,3367098.39,10883.0,1.0,5641386.75,15428.0,1.0,8457643.64,18031.0,0.9692,12366021.57,19047.0,0.9841
Barnsley Metropolitan Borough Council,Library @ The Lightbox,-1.479667,53.5528493,destination,312170.48,377.0,0.8943,1449680.08,5611.0,1.0,3369100.61,16292.0,1.0,6158897.71,24945.0,1.0,9613999.18,33614.0,1.0,13622948.52,43187.0,1.0
Barnsley Metropolitan Borough Council,Mapplewell,-1.5071691,53.5859803,destination,287580.21,1448.0,0.8239,1081145.64,5218.0,0.7743,2522541.37,8736.0,0.8029,3904014.78,10306.0,0.699,5831344.25,12592.0,0.6682,11003038.04,18444.0,0.8756
Barnsley Metropolitan Borough Council,Penistone,-1.6302968,53.5234463,destination,302181.52,1345.0,0.8657,1346525.68,4931.0,0.9644,3046481.35,7037.0,0.9697,5450543.06,8105.0,0.9759,8509090.92,9055.0,0.9751,12572024.36,9824.0,1.0
Barnsley Metropolitan Borough Council,Priory,-1.4407786,53.5562293,destination,297792.54,1228.0,0.8531,1319297.11,3010.0,0.9449,3083443.02,5551.0,0.9815,5393342.99,9070.0,0.9657,8492267.18,15435.0,0.9731,12547286.02,24216.0,0.9985
Barnsley Metropolitan Borough Council,Roundhouse,-1.4789699,53.580796,destination,141014.24,556.0,0.404,896381.89,4232.0,0.642,2297085.25,8125.0,0.7312,3978164.29,11952.0,0.7123,6131868.9,15565.0,0.7027,9326604.75,21507.0,0.7422
Barnsley Metropolitan Borough Council,Royston,-1.4557041,53.6000027,destination,304483.0,1122.0,0.8723,1403476.31,5971.0,1.0,2778723.71,9243.0,0.8845,4562813.19,10851.0,0.817,6616386.32,12214.0,0.7582,9070285.13,12953.0,0.7218
Barnsley Metropolitan Borough Council,Thurnscoe,-1.3112138,53.5450262,destination,366515.58,1123.0,1.0,1457037.69,4937.0,1.0,3113895.51,8292.0,0.9912,4863363.32,10822.0,0.8708,6597622.76,13628.0,0.756,8842854.61,16015.0,0.7037
Barnsley Metropolitan Borough Council,Wombwell,-1.3970482,53.5221528,destination,401394.56,1249.0,1.0,1526830.93,5076.0,1.0,3365893.23,9682.0,1.0,5585690.62,14119.0,1.0,9364659.96,19570.0,1.0,13104135.32,25421.0,1.0
Barnsley Metropolitan Borough Council,Worsbrough,-1.4643038,53.5316818,destination,344368.84,1689.0,0.9865,1189018.87,4543.0,0.8516,2766108.26,7609.0,0.8805,5148044.14,11005.0,0.9218,8247477.71,16107.0,0.9451,12006742.69,22871.0,0.9555
Bath and North East Somerset Council,Bath Central,-2.3589874,51.38352,destination,142880.34,728.0,0.4093,1029605.12,6842.0,0.7374,2789582.51,17035.0,0.888,5306510.14,24512.0,0.9501,8628321.75,34714.0,0.9887,12571139.61,45659.0,1.0
Bath and North East Somerset Council,Chew Valley Community Library,-2.5939103,51.3360949,destination,386973.01,657.0,1.0,1207920.68,1027.0,0.8651,2514055.17,1205.0,0.8002,4607717.92,1329.0,0.825,6827828.31,1416.0,0.7824,8654890.23,1472.0,0.6887
Bath and North East Somerset Council,Keynsham Library & Information Centre,-2.4975305,51.4138288,destination,299844.45,886.0,0.859,1349844.63,4564.0,0.9668,3178506.25,9730.0,1.0,5678247.7,14348.0,1.0,9069106.92,15997.0,1.0,12169905.91,16287.0,0.9685
Bath and North East Somerset Council,Love Weston Library,-2.3901884,51.3959883,destination,381633.26,1914.0,1.0,1640838.39,5109.0,1.0,3451707.2,8742.0,1.0,5894194.1,13245.0,1.0,8831778.16,19553.0,1.0,13376936.69,29495.0,1.0
Bath and North East Somerset Council,Midsomer Norton Library & Information Centre,-2.482407,51.286193,destination,262588.7,796.0,0.7523,1346719.98,3998.0,0.9645,3292235.49,10283.0,1.0,5954368.29,14574.0,1.0,9235602.71,17071.0,1.0,12784464.77,18324.0,1.0
Bath and North East Somerset Council,Moorland Road Community Library,-2.3798061,51.3779152,destination,360261.12,3996.0,1.0,1500264.21,10273.0,1.0,3398927.25,20256.0,1.0,5976505.28,31642.0,1.0,9237533.96,45670.0,1.0,13435368.93,57932.0,1.0
Bath and North East Somerset Council,Paulton Library @ The Hub,-2.5018918,51.3068011,destination,348545.73,1462.0,0.9985,1462837.74,4562.0,1.0,3295438.19,5225.0,1.0,5698946.18,5535.0,1.0,8972145.49,6920.0,1.0,13651598.75,10588.0,1.0
Bath and North East Somerset Council,Peasedown St. John Community Library,-2.4319794,51.3125163,destination,325646.97,838.0,0.9329,1303854.98,2874.0,0.9338,3113658.46,4762.0,0.9911,5664635.78,6642.0,1.0,9096127.92,7290.0,1.0,12876875.9,9192.0,1.0
Bath and North East Somerset Council,Radstock Community Hub,-2.4475402,51.2911916,destination,347380.87,624.0,0.9952,1430581.07,2707.0,1.0,3454279.18,5691.0,1.0,5826702.05,8904.0,1.0,8923270.68,10629.0,1.0,12937430.72,12843.0,1.0
Bath and North East Somerset Council,Saltford Community Library & Post Office,-2.4584527,51.4020107,destination,358677.0,1241.0,1.0,1337373.22,3235.0,0.9578,2513609.85,3980.0,0.8001,4205768.06,4097.0,0.753,6004810.64,4379.0,0.6881,8843673.48,6624.0,0.7038
Bath and North East Somerset Council,Timsbury Community Library,-2.4730966,51.3276169,destination,335141.76,886.0,0.9601,1483975.44,2059.0,1.0,3147152.57,2570.0,1.0,5574653.88,2845.0,0.9981,8470681.46,3213.0,0.9707,12082929.13,3999.0,0.9615
Bedford Borough Council,Bedford Central Library,-0.468231,52.136301,destination,373903.19,1207.0,1.0,1653061.51,8557.0,1.0,3684701.67,18844.0,1.0,6677236.74,36073.0,1.0,10218727.4,47491.0,1.0,14826127.87,59259.0,1.0
Bedford Borough Council,Bromham Library,-0.533588,52.149693,destination,181913.13,510.0,0.5211,1056410.52,1893.0,0.7566,2089240.02,4312.0,0.665,3682059.15,5043.0,0.6593,5354449.63,5112.0,0.6136,7170516.74,5553.0,0.5706
Bedford Borough Council,Kempston Library,-0.493452,52.121107,destination,178225.48,813.0,0.5106,988808.09,5058.0,0.7082,2452662.37,13046.0,0.7807,3939595.97,18706.0,0.7054,6225606.8,22890.0,0.7134,9811349.47,32521.0,0.7808
Bedford Borough Council,Putnoe Library,-0.440837,52.154873,destination,379206.63,1595.0,1.0,1538759.98,6221.0,1.0,3305157.94,12189.0,1.0,5620816.77,20451.0,1.0,8787954.07,30355.0,1.0,12582378.91,39440.0,1.0
Bedford Borough Council,Wootton Library,-0.52901,52.098754,destination,303347.66,1101.0,0.869,1310976.93,3213.0,0.9389,3095273.34,4096.0,0.9853,5298788.21,4547.0,0.9487,7784780.46,5082.0,0.8921,10754098.02,6147.0,0.8558
Birmingham City Council,Acocks Green Library,-1.8240162,52.4456665,destination,391315.99,2054.0,1.0,1517090.38,9243.0,1.0,3456167.13,21404.0,1.0,6063614.26,35713.0,1.0,9490393.08,53490.0,1.0,13595747.79,74079.0,1.0
Birmingham City Council,Aston Library,-1.893691,52.505087,destination,326695.5,4050.0,0.9359,1312827.12,14126.0,0.9402,2990054.14,27930.0,0.9518,5479289.36,43381.0,0.9811,8870561.14,58704.0,1.0,13114539.96,75266.0,1.0
Birmingham City Council,Balsall Heath Library,-1.8857787,52.4577525,destination,368376.6,2584.0,1.0,1578055.37,13558.0,1.0,3583392.32,30693.0,1.0,6369922.07,51202.0,1.0,9989152.24,73592.0,1.0,14321633.91,92895.0,1.0
Birmingham City Council,Bartley Green Library,-1.9985,52.436064,destination,311221.22,1428.0,0.8916,1276015.27,5321.0,0.9139,2847801.72,11164.0,0.9065,5138753.67,20019.0,0.9201,7826255.11,24653.0,0.8968,11526005.5,33579.0,0.9172
Birmingham City Council,Birchfield Library,-1.9020308,52.5089563,destination,361259.9,4320.0,1.0,1441854.1,15892.0,1.0,3433206.58,34889.0,1.0,6256690.38,51398.0,1.0,9768378.92,65044.0,1.0,14074185.42,81994.0,1.0
Birmingham City Council,Bloomsbury Library,-1.876649,52.493239,destination,359879.74,2167.0,1.0,1479437.6,5640.0,1.0,3264784.7,9706.0,1.0,5788902.19,21715.0,1.0,9578694.32,40759.0,1.0,13891184.17,62939.0,1.0
Birmingham City Council,Boldmere Library,-1.840495,52.5469528,destination,389624.65,1844.0,1.0,1547551.95,7323.0,1.0,3322118.97,14866.0,1.0,5949236.55,24400.0,1.0,9481482.92,38633.0,1.0,13448176.28,54305.0,1.0
Birmingham City Council,Castle Vale Library,-1.7849498,52.5213443,destination,355782.6,2360.0,1.0,1302018.15,7453.0,0.9325,2636792.66,10718.0,0.8393,4297903.91,13877.0,0.7695,6742566.29,18189.0,0.7726,9637652.58,23625.0,0.7669
Birmingham City Council,Druids Heath Library,-1.8892205,52.4073048,destination,344134.82,2343.0,0.9859,1247896.9,6560.0,0.8937,2731217.17,12311.0,0.8694,4913142.26,19078.0,0.8797,8145882.41,28690.0,0.9334,12511923.41,44257.0,0.9957
Birmingham City Council,Erdington Library,-1.9309226,52.5028904,destination,333292.08,2765.0,0.9548,1533541.21,13676.0,1.0,3557869.94,27748.0,1.0,6262443.24,46644.0,1.0,9683785.33,71216.0,1.0,14140248.24,95308.0,1.0
Birmingham City Council,Frankley Library,-2.017017,52.4038235,destination,359924.35,1187.0,1.0,1283784.41,6342.0,0.9194,2966595.08,11790.0,0.9443,5398401.87,17168.0,0.9666,7862217.6,23992.0,0.9009,12287670.84,31598.0,0.9778
Birmingham City Council,Glebe Farm Library,-1.7940723,52.4890947,destination,339551.93,2786.0,0.9727,1252678.32,8375.0,0.8972,2709990.07,14803.0,0.8626,5002200.99,26495.0,0.8956,8257239.26,42318.0,0.9462,12864765.07,62760.0,1.0
Birmingham City Council,Hall Green Library,-1.8465237,52.4337139,destination,348184.38,1451.0,0.9975,1447937.67,7275.0,1.0,3354286.39,19083.0,1.0,6104785.03,35489.0,1.0,9796639.48,58900.0,1.0,13908644.23,82487.0,1.0
Birmingham City Council,Handsworth Library,-1.9309226,52.5028904,destination,333292.08,2765.0,0.9548,1533541.21,13676.0,1.0,3557869.94,27748.0,1.0,6262443.24,46644.0,1.0,9683785.33,71216.0,1.0,14140248.24,95308.0,1.0
Birmingham City Council,Harborne Library,-1.9507663,52.4585348,destination,324651.53,2312.0,0.9301,1504536.97,8156.0,1.0,3276109.76,14721.0,1.0,6035142.22,23757.0,1.0,9226773.6,35472.0,1.0,13779341.34,55309.0,1.0
Birmingham City Council,Kings Heath Library,-1.8930228,52.4377924,destination,297171.28,1634.0,0.8513,1340360.02,6981.0,0.96,3272991.6,15049.0,1.0,5894072.53,25851.0,1.0,9386479.32,44522.0,1.0,13623197.28,69845.0,1.0
Birmingham City Council,Kings Norton Library,-1.9276811,52.4093922,destination,363391.73,485.0,1.0,1432635.78,3414.0,1.0,3337794.15,11299.0,1.0,6219109.82,26485.0,1.0,9709874.4,41403.0,1.0,14172909.21,59061.0,1.0
Birmingham City Council,Kingstanding Library,-1.8853866,52.5518685,destination,323240.93,1591.0,0.926,1462654.77,9284.0,1.0,3411314.43,21018.0,1.0,6261987.65,36592.0,1.0,9640777.91,51048.0,1.0,13817457.91,64848.0,1.0
Birmingham City Council,Library of Birmingham,-1.9084519,52.4797664,destination,353953.71,1575.0,1.0,1551990.96,10457.0,1.0,3618893.84,24873.0,1.0,6487879.73,38574.0,1.0,10223867.32,52886.0,1.0,14851123.05,73834.0,1.0
Birmingham City Council,Mere Green Library,-1.8273979,52.5864561,destination,263582.66,710.0,0.7551,1265193.64,4529.0,0.9061,2853599.26,10688.0,0.9083,4913611.69,16345.0,0.8798,7409083.1,21542.0,0.849,11366419.56,27327.0,0.9045
Birmingham City Council,Northfield Library,-1.9666777,52.4147681,destination,257345.68,891.0,0.7372,1259403.88,5615.0,0.902,3100768.35,14077.0,0.987,5856725.0,28400.0,1.0,9361633.43,44323.0,1.0,13560992.72,61015.0,1.0
Birmingham City Council,Perry Common Library,-1.8760101,52.5355886,destination,398766.77,1773.0,1.0,1569106.07,8820.0,1.0,3448499.35,17592.0,1.0,6323529.16,33887.0,1.0,10201179.54,50888.0,1.0,14952549.99,74407.0,1.0
Birmingham City Council,Quinton Library,-1.9856887,52.4601445,destination,339087.94,1748.0,0.9714,1406918.26,7919.0,1.0,3283953.06,20009.0,1.0,5951606.49,31413.0,1.0,9373451.06,43287.0,1.0,13763672.29,61550.0,1.0
Birmingham City Council,Selly Oak Library,-1.938827,52.440091,destination,366760.54,1671.0,1.0,1556949.65,8605.0,1.0,3565123.2,21052.0,1.0,6478123.15,29480.0,1.0,10293093.47,46246.0,1.0,14475377.53,64705.0,1.0
Birmingham City Council,Shard End Library,-1.7770289,52.4946369,destination,281107.79,1561.0,0.8053,1129853.22,5656.0,0.8092,2593184.26,11613.0,0.8254,5038581.02,21683.0,0.9022,8154653.76,35826.0,0.9345,11712773.95,54847.0,0.9321
Birmingham City Council,Sheldon Library,-1.7823279,52.4620848,destination,343937.6,2050.0,0.9853,1441459.99,7646.0,1.0,3278808.51,17158.0,1.0,5772900.85,29991.0,1.0,8640128.58,41463.0,0.9901,12313050.93,58247.0,0.9798
Birmingham City Council,Small Heath Library,-1.857302,52.4709079,destination,349893.32,3744.0,1.0,1526004.16,15057.0,1.0,3339285.64,28266.0,1.0,5878467.01,47062.0,1.0,9524762.81,69091.0,1.0,13662382.29,96450.0,1.0
Birmingham City Council,South Yardley Library,-1.8158018,52.4609819,destination,356738.68,1676.0,1.0,1454656.75,6125.0,1.0,3426801.43,18470.0,1.0,6259760.55,35623.0,1.0,9891173.77,52550.0,1.0,14301626.53,78406.0,1.0
Birmingham City Council,Sparkhill Library,-1.8643287,52.4506187,destination,432587.23,5024.0,1.0,1462411.7,18545.0,1.0,3444985.06,37079.0,1.0,6217937.13,59515.0,1.0,9420477.89,75184.0,1.0,14112702.58,99636.0,1.0
Birmingham City Council,Spring Hill Library,-1.921123,52.48548,destination,307625.74,1544.0,0.8813,1328159.51,5762.0,0.9512,3221341.59,15911.0,1.0,6003443.35,34869.0,1.0,9687918.47,59371.0,1.0,14369991.0,87778.0,1.0
Birmingham City Council,Stirchley Library,-1.9233249,52.4289569,destination,346540.85,1944.0,0.9928,1359795.72,6042.0,0.9739,3283884.77,16064.0,1.0,6123302.88,29250.0,1.0,9693781.44,45148.0,1.0,13985063.37,65643.0,1.0
Birmingham City Council,Sutton Coldfield Library,-1.8230483,52.5622429,destination,300744.67,937.0,0.8616,1468916.92,4644.0,1.0,3397208.82,9354.0,1.0,6256511.24,16307.0,1.0,9734703.26,26096.0,1.0,13743561.6,38356.0,1.0
Birmingham City Council,Tower Hill Library,-1.9197831,52.5342678,destination,322679.22,1889.0,0.9244,1451965.23,9471.0,1.0,3176891.59,16992.0,1.0,5571950.44,26530.0,0.9977,8921608.02,42536.0,1.0,12889122.68,56194.0,1.0
Birmingham City Council,Walmley Library,-1.8009574,52.5406898,destination,347191.83,1088.0,0.9946,1406623.31,4383.0,1.0,2860516.0,9380.0,0.9105,4747753.15,14144.0,0.8501,7673660.97,20469.0,0.8793,12243996.96,35739.0,0.9743
Birmingham City Council,Ward End Library,-1.835398,52.494768,destination,283417.93,1220.0,0.8119,1337743.69,10393.0,0.9581,2918075.14,23503.0,0.9289,4986774.02,41631.0,0.8929,8194794.13,58478.0,0.9391,12319325.02,76191.0,0.9803
Birmingham City Council,Weoley Castle Library,-1.9685877,52.4384032,destination,332091.81,1805.0,0.9514,1512198.92,8534.0,1.0,3408815.92,16310.0,1.0,6173727.77,26892.0,1.0,9519662.71,40463.0,1.0,13766574.6,56812.0,1.0
Birmingham City Council,Yardley Wood Library,-1.859168,52.418648,destination,359249.45,1597.0,1.0,1502601.07,7233.0,1.0,3456255.57,18119.0,1.0,6152632.19,30657.0,1.0,9867832.21,47726.0,1.0,13986819.09,67791.0,1.0
Blackburn with Darwen Borough Council,Blackburn Library,-2.485027,53.749682,destination,344882.45,1194.0,0.988,1491822.2,7883.0,1.0,3536571.37,19770.0,1.0,6231901.69,37570.0,1.0,9752518.78,56283.0,1.0,14410109.97,70772.0,1.0
Blackburn with Darwen Borough Council,Cherry Tree Library,-2.525941,53.729292,destination,270830.37,1225.0,0.7759,978699.78,4053.0,0.7009,2252595.17,7582.0,0.717,4061909.89,10300.0,0.7273,6925178.83,15446.0,0.7936,10378183.84,21374.0,0.8259
Blackburn with Darwen Borough Council,Darwen Library,-2.466151,53.696681,destination,367081.5,1926.0,1.0,1566378.76,7511.0,1.0,3511684.27,14844.0,1.0,5931522.85,20402.0,1.0,8949935.84,25226.0,1.0,12997764.26,28799.0,1.0
Blackburn with Darwen Borough Council,Mill Hill Library,-2.502795,53.734077,destination,383564.37,2199.0,1.0,1511989.78,7476.0,1.0,3254270.96,16220.0,1.0,5725133.08,24723.0,1.0,9129987.06,34664.0,1.0,13276321.25,46659.0,1.0
Blackburn with Darwen Borough Council,Roman Road Library,-2.472202,53.728431,destination,185564.0,574.0,0.5316,1024587.27,3760.0,0.7338,2216649.66,7560.0,0.7056,4221886.91,13439.0,0.7559,6893804.07,19445.0,0.79,10510929.53,30613.0,0.8364
Blackpool Borough Council,Anchorsholme,-3.0325541,53.8699262,destination,380645.67,2127.0,1.0,1416498.0,7484.0,1.0,3138816.54,13293.0,0.9991,5525922.63,20539.0,0.9894,8087925.21,30300.0,0.9268,11109779.89,42284.0,0.8841
Blackpool Borough Council,Blackpool Central,-3.0530804,53.8205816,destination,296718.28,875.0,0.85,1132757.69,5020.0,0.8113,2292206.9,13556.0,0.7296,4008169.17,25847.0,0.7177,6148452.76,37759.0,0.7046,8649043.44,51019.0,0.6883
Blackpool Borough Council,Langdale Library and Laundry Room,-2.9970044,53.7996474,destination,323972.69,2018.0,0.9281,1230140.39,3531.0,0.881,2303262.68,4753.0,0.7332,3819818.13,7702.0,0.6839,6363352.14,13144.0,0.7292,9305976.43,20084.0,0.7405
Blackpool Borough Council,Layton,-3.0326271,53.8271416,destination,427480.19,3055.0,1.0,1537992.87,9343.0,1.0,3312108.48,19604.0,1.0,5973629.01,33107.0,1.0,9344284.73,46250.0,1.0,12717629.35,55851.0,1.0
Blackpool Borough Council,Library @ the Grange,-3.0174658,53.8288974,destination,260086.58,1187.0,0.7451,1153294.22,5133.0,0.826,2737788.47,12198.0,0.8715,5198661.34,17695.0,0.9308,8305401.1,26197.0,0.9517,12042051.35,39235.0,0.9583
Blackpool Borough Council,Moor Park,-3.0365407,53.8484113,destination,239664.5,936.0,0.6866,1216181.65,5003.0,0.871,2964236.23,12569.0,0.9435,5176478.19,19617.0,0.9268,7401071.61,27591.0,0.8481,10455737.92,38149.0,0.832
Blackpool Borough Council,Palatine,-3.0415586,53.7951557,destination,285013.65,1559.0,0.8165,1319358.66,8308.0,0.9449,3160396.9,20008.0,1.0,5769715.49,34828.0,1.0,8658825.29,50953.0,0.9922,11424295.74,62195.0,0.9091
Blackpool Borough Council,Revoe,-3.0451332,53.8088766,destination,388561.81,3225.0,1.0,1582931.9,11083.0,1.0,3226751.06,21323.0,1.0,5353719.51,32512.0,0.9586,7911134.47,46046.0,0.9065,10820973.75,60159.0,0.8611
Bolton Metropolitan Borough Council,Blackrod Library,-2.5864397,53.5945278,destination,332030.69,1494.0,0.9512,1047291.2,2618.0,0.7501,2199745.97,3787.0,0.7002,4225258.14,4350.0,0.7565,6988097.17,5496.0,0.8008,9526873.35,7692.0,0.7581
Bolton Metropolitan Borough Council,Bolton Central Library,-2.427583,53.57925,destination,272950.67,569.0,0.7819,1356688.74,2761.0,0.9717,3222286.41,7848.0,1.0,6093046.93,20651.0,1.0,9820678.8,44606.0,1.0,14655968.97,69245.0,1.0
Bolton Metropolitan Borough Council,Breightmet Library,-2.3842756,53.5823666,destination,246659.31,935.0,0.7066,1246345.31,5881.0,0.8926,2919776.87,11531.0,0.9294,5303634.05,18394.0,0.9496,8642073.72,25687.0,0.9903,12761202.47,37722.0,1.0
Bolton Metropolitan Borough Council,Bromley Cross Library,-2.4185914,53.6171655,destination,338889.53,1695.0,0.9708,1371795.17,5561.0,0.9825,3057901.95,10158.0,0.9734,5201951.16,14786.0,0.9314,8196445.07,21853.0,0.9392,12007253.35,30203.0,0.9555
Bolton Metropolitan Borough Council,Farnworth Library,-2.3967506,53.551427,destination,388385.01,1875.0,1.0,1534952.06,6493.0,1.0,3547634.84,14088.0,1.0,6070883.75,21612.0,1.0,9844518.8,33227.0,1.0,14319654.31,48034.0,1.0
Bolton Metropolitan Borough Council,Harwood Library,-2.3966462,53.6047645,destination,294270.52,1355.0,0.843,1266184.34,4212.0,0.9068,3161203.46,9339.0,1.0,5515424.59,13442.0,0.9875,8756457.96,19178.0,1.0,12659814.95,27024.0,1.0
Bolton Metropolitan Borough Council,High Street Library,-2.4394181,53.5672773,destination,392492.85,4513.0,1.0,1545277.39,11592.0,1.0,3567365.04,26130.0,1.0,6323781.76,39790.0,1.0,9698709.13,50847.0,1.0,14105790.54,67380.0,1.0
Bolton Metropolitan Borough Council,Horwich Library,-2.5492008,53.6018688,destination,369282.33,2801.0,1.0,1444795.63,7184.0,1.0,3254017.0,11201.0,1.0,5257567.52,13889.0,0.9414,8295187.73,15416.0,0.9506,11865079.76,18551.0,0.9442
Bolton Metropolitan Borough Council,Little Lever Library,-2.371909,53.5619872,destination,255581.13,1274.0,0.7322,1259940.22,7316.0,0.9024,2599311.31,11616.0,0.8274,4899226.02,15280.0,0.8772,7553800.56,21514.0,0.8656,11245413.33,32235.0,0.8949
Bolton Metropolitan Borough Council,Westhoughton Library,-2.5205051,53.5490204,destination,308589.54,1132.0,0.884,1407618.99,5887.0,1.0,3217220.05,12874.0,1.0,5889963.55,19163.0,1.0,8903972.65,23749.0,1.0,12528420.92,26363.0,0.997
"Bournemouth, Christchurch and Poole Council",Boscombe Library,-1.8366002,50.7267573,destination,214399.06,2554.0,0.6142,1129921.98,11334.0,0.8092,2641317.3,20185.0,0.8408,4549504.43,31569.0,0.8146,6791970.03,44352.0,0.7783,9421892.32,60082.0,0.7498
"Bournemouth, Christchurch and Poole Council",Branksome Library,-1.9318037,50.7285689,destination,323847.78,2414.0,0.9278,1310039.14,8852.0,0.9382,3041041.77,18580.0,0.968,5767926.85,30372.0,1.0,9183394.78,45164.0,1.0,13143707.96,58078.0,1.0
"Bournemouth, Christchurch and Poole Council",Broadstone Library,-1.9934908,50.7603252,destination,215778.93,593.0,0.6182,1199103.97,3102.0,0.8588,2846190.68,7525.0,0.906,5213840.7,12807.0,0.9335,8773580.95,21187.0,1.0,12415116.12,28365.0,0.988
"Bournemouth, Christchurch and Poole Council",Canford Cliffs Library,-1.9159474,50.7052796,destination,269104.16,429.0,0.7709,943416.2,1441.0,0.6757,2134885.38,3102.0,0.6796,3603519.97,6120.0,0.6452,5551484.54,10112.0,0.6362,7565442.82,16858.0,0.602
"Bournemouth, Christchurch and Poole Council",Canford Heath Library,-1.9647654,50.7413272,destination,279048.48,1529.0,0.7994,1104695.25,4067.0,0.7912,2651086.06,8926.0,0.8439,4977793.33,17438.0,0.8913,8228953.97,29623.0,0.943,11987223.81,41502.0,0.9539
"Bournemouth, Christchurch and Poole Council",Castlepoint Library,-1.8430211,50.7513979,destination,347526.44,854.0,0.9956,1387756.94,5042.0,0.9939,3239910.57,10481.0,1.0,5239239.14,17102.0,0.9381,8034212.49,27183.0,0.9207,11511125.62,41319.0,0.916
"Bournemouth, Christchurch and Poole Council",Charminster Library,-1.8611965,50.7454583,destination,392682.77,2123.0,1.0,1562836.69,8909.0,1.0,3461504.55,19425.0,1.0,5966808.71,36249.0,1.0,9470958.46,55383.0,1.0,13429844.48,73022.0,1.0
"Bournemouth, Christchurch and Poole Council",Christchurch,-1.7776128,50.7345024,destination,368840.72,783.0,1.0,1292433.25,3239.0,0.9256,2529470.03,7119.0,0.8052,4486897.02,13395.0,0.8034,7455142.45,22520.0,0.8543,12245873.05,35634.0,0.9745
"Bournemouth, Christchurch and Poole Council",Creekmoor Library,-2.0049306,50.7422501,destination,236627.44,964.0,0.6779,834869.85,4038.0,0.5979,2083710.46,6272.0,0.6633,4071208.33,9837.0,0.7289,6682056.24,15217.0,0.7657,9778113.14,22467.0,0.7781
"Bournemouth, Christchurch and Poole Council",Ensbury Park,-1.8877415,50.7519343,destination,404257.97,2862.0,1.0,1572973.5,9009.0,1.0,3650796.36,20247.0,1.0,6338636.74,34753.0,1.0,9808214.18,51478.0,1.0,13824712.95,68389.0,1.0
"Bournemouth, Christchurch and Poole Council",Hamworthy Library,-2.0041738,50.7147586,destination,237308.97,568.0,0.6798,927100.58,2845.0,0.664,1806293.77,5813.0,0.575,2991775.95,10292.0,0.5357,4350938.29,13857.0,0.4986,6277574.2,17850.0,0.4996
"Bournemouth, Christchurch and Poole Council",Highcliffe,-1.6966757,50.7426844,destination,348190.44,1387.0,0.9975,1419203.06,3571.0,1.0,2971908.04,6497.0,0.946,4565692.63,8624.0,0.8175,6213054.33,11038.0,0.712,9221243.88,14650.0,0.7338
"Bournemouth, Christchurch and Poole Council",Kinson Hub,-1.9018057,50.7691694,destination,428865.03,1653.0,1.0,1512624.09,4938.0,1.0,3152098.71,11995.0,1.0,5271365.23,19323.0,0.9438,7918988.26,27521.0,0.9074,10912567.58,36597.0,0.8684
"Bournemouth, Christchurch and Poole Council",Oakdale Library,-1.977482,50.7331113,destination,340661.2,1902.0,0.9759,1478069.7,7919.0,1.0,3197548.86,13345.0,1.0,5762406.41,20567.0,1.0,8609933.0,28177.0,0.9866,12391985.32,41766.0,0.9861
"Bournemouth, Christchurch and Poole Council",Parkstone Library,-1.9538136,50.72278,destination,409364.96,2351.0,1.0,1650974.03,6555.0,1.0,3522664.31,14448.0,1.0,6046413.49,25982.0,1.0,9285898.98,40467.0,1.0,12785140.39,54251.0,1.0
"Bournemouth, Christchurch and Poole Council",Pokesdown & Southbourne Library,-1.8204987,50.7286674,destination,314528.28,2759.0,0.9011,1434460.24,11848.0,1.0,3263275.54,21213.0,1.0,5339395.62,30988.0,0.956,7727483.23,44516.0,0.8855,10429509.86,55414.0,0.83
"Bournemouth, Christchurch and Poole Council",Poole Library,-1.979656,50.7186515,destination,355283.62,1248.0,1.0,1504930.22,7285.0,1.0,3132487.3,12879.0,0.9971,4907817.77,17680.0,0.8787,7065671.2,25045.0,0.8097,9569579.85,32995.0,0.7615
"Bournemouth, Christchurch and Poole Council",Rossmore Library,-1.934222,50.7421855,destination,174952.64,745.0,0.5012,1044215.52,5655.0,0.7479,2569356.33,11899.0,0.8179,5004665.59,21269.0,0.8961,8055543.86,34409.0,0.9231,11908532.17,50306.0,0.9477
"Bournemouth, Christchurch and Poole Council",Springbourne Library,-1.8530045,50.7317789,destination,333544.72,3788.0,0.9555,1448880.78,14368.0,1.0,3283570.99,27827.0,1.0,5931064.52,42474.0,1.0,9088411.55,55929.0,1.0,12512675.51,71340.0,0.9957
"Bournemouth, Christchurch and Poole Council",Tuckton Library,-1.7867263,50.7277476,destination,346654.77,1053.0,0.9931,1266149.35,4526.0,0.9068,3094410.7,11084.0,0.985,5053313.9,17061.0,0.9048,7198647.68,24901.0,0.8249,9499708.58,34967.0,0.756
"Bournemouth, Christchurch and Poole Council",Westbourne Library,-1.9020928,50.721749,destination,306880.56,2231.0,0.8791,1349495.2,8394.0,0.9665,3156295.29,17213.0,1.0,5364266.14,24102.0,0.9605,8088674.59,29856.0,0.9269,11100389.76,39411.0,0.8833
"Bournemouth, Christchurch and Poole Council",West Howe Library,-1.9100922,50.7576008,destination,375634.42,2238.0,1.0,1307663.92,7023.0,0.9365,2956831.45,12390.0,0.9412,5301296.44,21643.0,0.9492,8233029.02,33764.0,0.9434,11561535.17,44288.0,0.92
"Bournemouth, Christchurch and Poole Council",Winton Library,-1.8782011,50.746664,destination,351663.4,3058.0,1.0,1455965.07,12764.0,1.0,3448578.44,25033.0,1.0,6203636.56,37842.0,1.0,9717714.19,53412.0,1.0,13872526.8,70448.0,1.0
Bracknell Forest Council,Ascot Heath,-0.690579,51.42102,destination,172262.87,885.0,0.4935,920063.03,3743.0,0.6589,2343552.98,7048.0,0.746,4116549.76,8660.0,0.7371,7329957.35,9960.0,0.84,10569496.71,11124.0,0.8411
Bracknell Forest Council,Binfield,-0.791168,51.430804,destination,387694.37,1176.0,1.0,1236777.31,2970.0,0.8858,2161412.97,3318.0,0.688,3985016.65,4124.0,0.7135,6291368.66,6957.0,0.7209,9738867.3,9354.0,0.775
Bracknell Forest Council,Birch Hill,-0.75199,51.390839,destination,274018.68,1239.0,0.785,1175198.56,5330.0,0.8417,2707044.84,10606.0,0.8617,5114872.86,17201.0,0.9158,8581561.29,26595.0,0.9834,12659825.77,34239.0,1.0
Bracknell Forest Council,Bracknell Central,-0.747917,51.417915,destination,195818.92,235.0,0.561,1175172.51,3277.0,0.8417,2935087.41,9628.0,0.9343,5610253.83,19861.0,1.0,8912354.54,28420.0,1.0,13029104.09,38571.0,1.0
Bracknell Forest Council,Crowthorne,-0.793715,51.368399,destination,208962.32,1152.0,0.5986,1120179.49,4054.0,0.8023,2777108.79,6980.0,0.884,5038185.73,9549.0,0.9021,8075848.98,13558.0,0.9254,11886855.06,19616.0,0.9459
Bracknell Forest Council,Great Hollands,-0.770821,51.399417,destination,369210.63,2329.0,1.0,1335000.56,6981.0,0.9561,3035492.79,12846.0,0.9662,5391235.17,20138.0,0.9653,7919661.85,25565.0,0.9075,11795811.68,30574.0,0.9387
Bracknell Forest Council,Harmans Water,-0.732351,51.40614,destination,359933.63,2033.0,1.0,1398211.42,6569.0,1.0,3137247.93,13165.0,0.9986,5681219.25,20994.0,1.0,9066572.92,28325.0,1.0,13062934.59,37425.0,1.0
Bracknell Forest Council,Sandhurst,-0.796595,51.34567,destination,240941.52,1045.0,0.6902,1059622.35,3238.0,0.7589,2481782.6,7176.0,0.79,4567069.84,14843.0,0.8177,7515472.93,21795.0,0.8612,11149992.85,28812.0,0.8873
Bracknell Forest Council,Whitegrove,-0.73138,51.426252,destination,309087.56,1402.0,0.8855,1302206.74,5164.0,0.9326,2880908.22,9984.0,0.917,5003647.71,14599.0,0.8959,7723111.54,19825.0,0.885,11897355.2,26273.0,0.9468
Brighton and Hove City Council,Coldean Library,-0.1130358,50.8635289,destination,299658.83,1681.0,0.8585,1148486.35,3084.0,0.8225,2491052.19,4405.0,0.7929,4748537.48,7529.0,0.8502,7806892.28,12493.0,0.8946,11390074.73,23058.0,0.9064
Brighton and Hove City Council,Hangleton Library,-0.1955074,50.8456681,destination,324223.65,2438.0,0.9288,1507122.99,8950.0,1.0,3262062.58,17420.0,1.0,5478155.59,27040.0,0.9809,8542532.65,42296.0,0.9789,11812722.72,62185.0,0.94
Brighton and Hove City Council,Hollingbury Library,-0.126805,50.8653245,destination,194014.17,700.0,0.5558,1034265.59,3272.0,0.7407,2406953.54,7778.0,0.7662,4470379.48,13252.0,0.8004,7336572.62,17795.0,0.8407,10529019.32,22446.0,0.8379
Brighton and Hove City Council,Hove Library,-0.1770897,50.8283661,destination,277618.35,2941.0,0.7953,1203356.41,15632.0,0.8618,2470711.07,32029.0,0.7865,4149211.46,49402.0,0.7429,6253908.82,63427.0,0.7166,8941684.84,81734.0,0.7116
Brighton and Hove City Council,Jubilee Library,-0.1383649,50.8251917,destination,354403.76,4072.0,1.0,1419536.07,16438.0,1.0,3042396.96,41384.0,0.9684,5030790.83,71209.0,0.9008,7493826.81,97843.0,0.8587,10489064.49,121878.0,0.8347
Brighton and Hove City Council,Moulsecoomb Library,-0.1157753,50.8470341,destination,296085.18,1670.0,0.8482,1154608.76,5631.0,0.8269,2911908.12,14911.0,0.9269,5331158.16,28598.0,0.9545,8711027.2,46607.0,0.9982,12919015.05,70172.0,1.0
Brighton and Hove City Council,Patcham Library,-0.1439264,50.8632506,destination,229882.94,1184.0,0.6586,1165133.93,5455.0,0.8345,2763774.87,10797.0,0.8797,4887283.57,16233.0,0.8751,7840182.04,20950.0,0.8984,11453820.68,26882.0,0.9115
Brighton and Hove City Council,Portslade Library,-0.211502,50.8382427,destination,366287.16,1660.0,1.0,1443388.41,8452.0,1.0,3306400.44,19547.0,1.0,5730393.18,33357.0,1.0,8673764.55,48539.0,0.9939,12051954.57,65725.0,0.9591
Brighton and Hove City Council,Rottingdean Library,-0.0573222,50.8059015,destination,390530.97,1182.0,1.0,1261225.26,2454.0,0.9033,2276832.42,4581.0,0.7247,3687317.89,7408.0,0.6602,5192149.64,10860.0,0.595,7172015.43,13076.0,0.5707
Brighton and Hove City Council,Saltdean Library,-0.0419526,50.8017863,destination,276856.32,775.0,0.7931,996484.32,3897.0,0.7137,2111127.37,7847.0,0.672,3509043.54,10944.0,0.6283,4997082.24,12962.0,0.5726,6301958.59,14285.0,0.5015
Brighton and Hove City Council,Westdene Library,-0.1624311,50.859928,destination,131098.05,440.0,0.3756,873348.83,3094.0,0.6255,2172474.58,6502.0,0.6915,4147278.4,10169.0,0.7426,6897921.1,17669.0,0.7904,10604481.64,29107.0,0.8439
Brighton and Hove City Council,Whitehawk Library,-0.1072709,50.8260333,destination,285335.82,2109.0,0.8174,1224872.88,7585.0,0.8773,2752890.91,15523.0,0.8763,4780263.19,27571.0,0.8559,6882816.35,44451.0,0.7887,9407541.93,64048.0,0.7486
Brighton and Hove City Council,Woodingdean Library,-0.0783669,50.8358102,destination,336282.36,1355.0,0.9634,1372418.85,3988.0,0.9829,2453213.96,5841.0,0.7809,3564348.6,8084.0,0.6382,4834965.02,10893.0,0.554,7143285.11,14651.0,0.5684
Bristol City Council,Avonmouth,-2.6984287,51.5000951,destination,295045.17,905.0,0.8452,811882.21,1617.0,0.5815,1624068.26,2210.0,0.517,2649613.92,4949.0,0.4744,3952917.47,7946.0,0.453,6219247.06,11189.0,0.4949
Bristol City Council,Bedminster,-2.5936724,51.4442519,destination,286019.34,1718.0,0.8194,1399334.08,8243.0,1.0,3195924.54,22611.0,1.0,5868062.56,40731.0,1.0,9408879.41,60294.0,1.0,13888969.98,84857.0,1.0
Bristol City Council,Bishopston,-2.5915924,51.475088,destination,330911.81,3405.0,0.948,1477844.58,15804.0,1.0,3366210.55,31600.0,1.0,6068073.07,56289.0,1.0,9569773.02,82842.0,1.0,13965414.13,107910.0,1.0
Bristol City Council,Bishopsworth,-2.6168962,51.4190257,destination,357981.59,1597.0,1.0,1550165.59,7841.0,1.0,3373661.41,14564.0,1.0,5500587.5,21173.0,0.9849,8503168.57,31405.0,0.9744,12306760.05,46078.0,0.9793
Bristol City Council,Bristol Central,-2.602415,51.4514706,destination,287868.45,2203.0,0.8247,1111455.08,7113.0,0.796,2816017.68,17268.0,0.8964,5270236.35,38946.0,0.9436,8601651.35,64254.0,0.9857,12907010.84,98043.0,1.0
Bristol City Council,Clifton,-2.6196554,51.4545997,destination,342114.48,3766.0,0.9801,1372663.24,13668.0,0.9831,2869512.77,21561.0,0.9134,4831434.53,31103.0,0.8651,7495982.24,44543.0,0.859,11583162.81,62612.0,0.9218
Bristol City Council,Filwood,-2.5858241,51.4236001,destination,399099.14,2726.0,1.0,1570522.14,10328.0,1.0,3551024.99,19090.0,1.0,6036438.89,27889.0,1.0,9361516.64,43548.0,1.0,13418124.1,67860.0,1.0
Bristol City Council,Fishponds,-2.5331233,51.4775855,destination,398317.62,1434.0,1.0,1574714.11,9409.0,1.0,3666299.71,20111.0,1.0,6170749.66,32430.0,1.0,9802023.55,51767.0,1.0,13930338.36,76999.0,1.0
Bristol City Council,Hartcliffe,-2.5984343,51.4046624,destination,314693.09,2286.0,0.9015,1216942.65,7177.0,0.8716,2432494.26,11339.0,0.7743,4665844.97,15643.0,0.8354,7186764.09,21967.0,0.8235,10683453.92,32093.0,0.8502
Bristol City Council,Henbury,-2.619452,51.5097288,destination,362908.44,2087.0,1.0,1467429.01,6878.0,1.0,3002651.95,10491.0,0.9558,5445839.39,15646.0,0.9751,8053617.03,22433.0,0.9229,11829194.28,31224.0,0.9413
Bristol City Council,Henleaze,-2.6117678,51.4807674,destination,309306.52,3160.0,0.8861,1374675.03,8688.0,0.9845,3207748.32,17825.0,1.0,6177427.44,36645.0,1.0,9749990.48,61390.0,1.0,14037394.42,87975.0,1.0
Bristol City Council,Hillfields,-2.5164778,51.4745705,destination,343706.17,2127.0,0.9846,1461112.23,9899.0,1.0,3346740.67,23512.0,1.0,6151195.25,40889.0,1.0,9723275.86,61317.0,1.0,14097681.8,80753.0,1.0
Bristol City Council,Horfield,-2.5740169,51.4947193,destination,364393.44,3970.0,1.0,1395327.33,11142.0,0.9993,3338153.73,19605.0,1.0,5973098.78,31381.0,1.0,9354428.82,45678.0,1.0,13311841.98,63326.0,1.0
Bristol City Council,Junction 3,-2.5732409,51.4661142,destination,331672.93,2644.0,0.9502,1410035.82,14254.0,1.0,3326868.4,31324.0,1.0,6064931.14,52483.0,1.0,9480051.33,74517.0,1.0,13855855.24,99321.0,1.0
Bristol City Council,Knowle,-2.5670463,51.4344642,destination,337830.59,2183.0,0.9678,1522442.54,9770.0,1.0,3379011.14,20261.0,1.0,5972154.25,38106.0,1.0,9524730.64,53770.0,1.0,13692343.06,69503.0,1.0
Bristol City Council,Lockleaze Library,-2.5616624,51.4904362,destination,339143.8,1099.0,0.9716,1495325.63,3732.0,1.0,3287239.46,9031.0,1.0,5840642.53,20217.0,1.0,9358344.0,36109.0,1.0,13485749.22,50709.0,1.0
Bristol City Council,Marksbury Road,-2.6023124,51.433704,destination,376757.11,2825.0,1.0,1590430.91,11555.0,1.0,3607057.23,25030.0,1.0,6520437.93,41646.0,1.0,9881964.58,58424.0,1.0,13896331.1,73585.0,1.0
Bristol City Council,Redland,-2.6108466,51.4653105,destination,323176.36,4353.0,0.9258,1459110.27,17670.0,1.0,3358651.54,31293.0,1.0,5909981.34,49062.0,1.0,9291411.85,72800.0,1.0,12909709.33,94532.0,1.0
Bristol City Council,Sea Mills,-2.6492656,51.4914315,destination,297141.34,1775.0,0.8512,1349181.79,5313.0,0.9663,2858497.31,8071.0,0.9099,4805540.73,11381.0,0.8604,7644393.1,19494.0,0.876,11036949.01,32233.0,0.8783
Bristol City Council,Shirehampton,-2.6753989,51.4869139,destination,341094.36,2190.0,0.9772,1304789.1,5896.0,0.9345,2126097.08,8450.0,0.6768,3326387.24,10288.0,0.5956,4815858.75,14430.0,0.5519,6799522.71,20297.0,0.5411
Bristol City Council,Southmead,-2.5994682,51.5033318,destination,276926.4,2323.0,0.7933,1345242.01,9194.0,0.9635,2942954.9,15058.0,0.9368,5107164.2,24566.0,0.9144,7827757.13,37925.0,0.897,11892617.08,55653.0,0.9464
Bristol City Council,St. George,-2.5442248,51.4605306,destination,381379.58,2744.0,1.0,1520957.4,10415.0,1.0,3317794.03,22060.0,1.0,6102276.4,40427.0,1.0,9650332.72,63396.0,1.0,13967014.88,86236.0,1.0
Bristol City Council,Stockwood,-2.5470915,51.4126997,destination,250680.22,1182.0,0.7181,1182045.04,5741.0,0.8466,2404357.73,8655.0,0.7653,3936296.7,12467.0,0.7048,6268030.13,17217.0,0.7183,9042242.4,22947.0,0.7196
Bristol City Council,St. Pauls,-2.5825794,51.4642074,destination,361095.44,4509.0,1.0,1396193.64,14500.0,1.0,3266044.69,31799.0,1.0,6055336.87,51144.0,1.0,9811779.17,81987.0,1.0,14284509.02,113880.0,1.0
Bristol City Council,Westbury,-2.6222614,51.4927289,destination,413159.05,1815.0,1.0,1616059.8,6164.0,1.0,3553024.95,13364.0,1.0,6494174.21,23600.0,1.0,10199824.18,40115.0,1.0,14564887.41,61312.0,1.0
Bristol City Council,Whitchurch,-2.5718249,51.4140118,destination,298208.8,979.0,0.8543,1343854.17,5824.0,0.9625,2925708.4,12444.0,0.9313,5468547.0,22251.0,0.9791,8433977.6,34341.0,0.9665,11901018.64,49797.0,0.9471
Bristol City Council,Wick Road,-2.5516686,51.4392941,destination,366556.22,3661.0,1.0,1471330.66,10381.0,1.0,3510850.34,16888.0,1.0,6171213.87,27347.0,1.0,9261993.95,38458.0,1.0,12690496.76,53730.0,1.0
Buckinghamshire Council,Amersham Library,-0.602217,51.676267,destination,262995.87,807.0,0.7534,1229537.92,4317.0,0.8806,2810545.36,8737.0,0.8946,5361466.59,13962.0,0.96,8051428.59,17148.0,0.9226,11326981.1,18968.0,0.9014
Buckinghamshire Council,Aylesbury Library,-0.812337,51.814526,destination,270024.65,746.0,0.7736,1288222.96,6304.0,0.9226,3214067.37,14650.0,1.0,5817146.55,27405.0,1.0,9224580.63,43473.0,1.0,13438272.78,56949.0,1.0
Buckinghamshire Council,Beaconsfield Library,-0.650577,51.612896,destination,215736.71,723.0,0.618,1251861.31,2933.0,0.8966,2922347.87,5838.0,0.9302,5094042.54,9222.0,0.9121,8711375.02,12410.0,0.9983,12427177.92,14095.0,0.9889
Buckinghamshire Council,Beacon Villages Community Library,-0.631823,51.83534,destination,368185.79,462.0,1.0,1464033.92,1463.0,1.0,3045520.08,2631.0,0.9694,4906749.54,3510.0,0.8786,6754412.15,3670.0,0.774,10078288.62,3836.0,0.802
Buckinghamshire Council,Bourne End Community Library,-0.710913,51.578937,destination,348889.36,1450.0,0.9995,1534582.65,4576.0,1.0,3282622.26,6223.0,1.0,5488053.43,7313.0,0.9826,7772108.65,8175.0,0.8906,11866225.29,11059.0,0.9443
Buckinghamshire Council,Buckingham Library,-0.986615,52.0001,destination,368913.55,1330.0,1.0,1520565.92,4916.0,1.0,3316238.12,9437.0,1.0,5489125.92,11831.0,0.9828,7652981.27,12993.0,0.877,10574858.31,13342.0,0.8415
Buckinghamshire Council,Burnham Community Library,-0.658012,51.531517,destination,317956.15,822.0,0.9109,1389972.16,5637.0,0.9955,3211601.14,12523.0,1.0,5789832.49,20397.0,1.0,9088401.14,28257.0,1.0,13292196.67,37281.0,1.0
Buckinghamshire Council,Castlefield Community Library,-0.780608,51.624986,destination,309895.93,2525.0,0.8878,1251032.21,7742.0,0.896,2857349.58,14010.0,0.9095,5186667.71,22010.0,0.9287,7749229.6,27840.0,0.888,10443253.99,33523.0,0.831
Buckinghamshire Council,Chalfont St Giles Community Library,-0.56958,51.632699,destination,352560.53,555.0,1.0,1532716.86,2720.0,1.0,3602352.83,4662.0,1.0,5898797.7,5209.0,1.0,9026811.48,6057.0,1.0,13318606.72,7277.0,1.0
Buckinghamshire Council,Chalfont St Peter Community Library,-0.556729,51.606747,destination,363976.6,1084.0,1.0,1580448.61,4541.0,1.0,3553947.56,8852.0,1.0,5790235.57,11628.0,1.0,8989481.11,13787.0,1.0,13533449.46,15242.0,1.0
Buckinghamshire Council,Chesham Library,-0.613119,51.706645,destination,351107.02,1107.0,1.0,1520420.84,4996.0,1.0,3458529.35,10846.0,1.0,6059470.51,16899.0,1.0,10197561.3,20416.0,1.0,13808620.38,22675.0,1.0
Buckinghamshire Council,Farnham Common Community Library,-0.612536,51.554545,destination,295834.4,1107.0,0.8475,1128016.24,2136.0,0.8079,2751902.86,3495.0,0.876,4927716.27,4781.0,0.8823,8696427.46,7218.0,0.9965,12157818.05,9516.0,0.9675
Buckinghamshire Council,Flackwell Heath Community Library,-0.711761,51.601498,destination,324620.36,1123.0,0.93,1347146.84,3128.0,0.9648,2877657.88,5722.0,0.916,4937202.22,8648.0,0.884,7084641.77,10419.0,0.8118,11488444.74,14754.0,0.9142
Buckinghamshire Council,Gerrards Cross Community Library,-0.551787,51.588244,destination,329950.61,984.0,0.9452,1415146.98,2465.0,1.0,2913704.96,4502.0,0.9275,5213479.61,6705.0,0.9335,8128632.82,9102.0,0.9315,11513437.69,12806.0,0.9162
Buckinghamshire Council,Great Missenden Community Library,-0.706455,51.702804,destination,328786.63,659.0,0.9419,1538383.06,1399.0,1.0,3261761.79,1759.0,1.0,5360521.38,2223.0,0.9598,7572065.41,3683.0,0.8677,11536997.61,6248.0,0.9181
Buckinghamshire Council,Haddenham Community Library,-0.926179,51.773343,destination,389242.21,1144.0,1.0,1364382.06,3301.0,0.9772,2357364.98,4142.0,0.7504,3935604.79,4540.0,0.7047,5376663.1,4566.0,0.6161,8908376.33,4817.0,0.7089
Buckinghamshire Council,Hazlemere Library,-0.714835,51.650124,destination,369767.72,1084.0,1.0,1572389.4,3556.0,1.0,3438530.47,8562.0,1.0,5777859.94,14046.0,1.0,9194662.03,22477.0,1.0,13800360.43,30608.0,1.0
Buckinghamshire Council,High Wycombe Library,-0.755175,51.630695,destination,296680.44,854.0,0.8499,1367182.43,5646.0,0.9792,3130599.45,15180.0,0.9965,5490615.05,25443.0,0.9831,8777514.41,36963.0,1.0,13445888.39,52028.0,1.0
Buckinghamshire Council,Iver Heath Community Library,-0.520015,51.53775,destination,311241.63,1432.0,0.8916,994205.46,2892.0,0.712,2354496.54,3964.0,0.7495,4400585.71,4728.0,0.7879,7012350.04,5211.0,0.8036,10772213.72,7438.0,0.8572
Buckinghamshire Council,Little Chalfont Community Library,-0.568982,51.667063,destination,107218.87,158.0,0.3072,671477.03,1330.0,0.4809,1938203.33,4263.0,0.6169,3319814.54,5833.0,0.5944,5548884.54,6621.0,0.6359,9139308.74,8246.0,0.7273
Buckinghamshire Council,Long Crendon Community Library,-0.992978,51.772793,destination,292901.16,823.0,0.8391,1027959.07,1993.0,0.7362,1725292.63,2349.0,0.5492,2965709.07,2445.0,0.531,4381935.49,2485.0,0.5021,6296172.33,2540.0,0.501
Buckinghamshire Council,Marlow Library,-0.773818,51.570997,destination,304924.7,1102.0,0.8735,1469857.01,4616.0,1.0,3436396.31,9630.0,1.0,6055090.45,13745.0,1.0,9435387.93,15784.0,1.0,13218129.73,17631.0,1.0
Buckinghamshire Council,Micklefield Community Library,-0.710756,51.631385,destination,306913.86,1473.0,0.8792,1208073.95,4155.0,0.8652,2506446.71,8771.0,0.7978,4630443.85,15652.0,0.8291,7272974.71,25046.0,0.8334,11602100.84,35044.0,0.9233
Buckinghamshire Council,Princes Risborough Library,-0.831597,51.722345,destination,349093.11,1431.0,1.0,1453273.02,4991.0,1.0,2875792.11,6413.0,0.9154,5408117.53,7710.0,0.9683,8195283.4,8350.0,0.9391,11830266.6,8947.0,0.9414
Buckinghamshire Council,Stokenchurch Community Library,-0.898388,51.659218,destination,279757.44,1225.0,0.8014,1117985.47,2963.0,0.8007,2393541.4,3758.0,0.7619,4573545.19,4162.0,0.8189,6307346.25,4302.0,0.7228,9083384.17,4510.0,0.7228
Buckinghamshire Council,Wendover Community Library,-0.742538,51.762223,destination,273904.22,838.0,0.7847,1308664.55,3391.0,0.9373,2992861.16,5158.0,0.9527,5592868.87,6788.0,1.0,8853149.58,7604.0,1.0,12837367.72,8150.0,1.0
Buckinghamshire Council,West Wycombe Community Library,-0.803476,51.644397,destination,400513.41,134.0,1.0,1420033.43,555.0,1.0,2801855.13,864.0,0.8919,4411103.06,2149.0,0.7898,6496637.75,4737.0,0.7445,9641266.15,9439.0,0.7672
Buckinghamshire Council,Wing Community Library,-0.71518,51.897252,destination,345482.59,1173.0,0.9897,1518211.57,2470.0,1.0,2821562.68,2637.0,0.8981,4315242.31,2674.0,0.7726,5498209.08,2683.0,0.63,8158777.94,2708.0,0.6493
Buckinghamshire Council,Winslow Community Library,-0.883274,51.945991,destination,280144.04,951.0,0.8026,1238224.35,3008.0,0.8868,2549816.73,4367.0,0.8116,4003894.21,4493.0,0.7169,5340343.58,4528.0,0.612,7013917.03,4604.0,0.5581
Bury Metropolitan Borough Council,Bury Library,-2.298837,53.5917712,destination,328916.29,704.0,0.9423,1412694.29,3027.0,1.0,3188566.05,9135.0,1.0,5972409.7,21839.0,1.0,9177735.21,33888.0,1.0,13451454.68,46091.0,1.0
Bury Metropolitan Borough Council,Prestwich Library & Adult Learning Centre,-2.2839106,53.533215,destination,292461.07,1809.0,0.8378,1419105.83,6244.0,1.0,3206691.17,15043.0,1.0,5755616.7,24807.0,1.0,8826141.97,32887.0,1.0,12572223.53,43224.0,1.0
Bury Metropolitan Borough Council,Radcliffe Library,-2.3226807,53.5577457,destination,354891.71,1189.0,1.0,1545103.84,5690.0,1.0,3413153.6,10830.0,1.0,6070214.57,17907.0,1.0,9198563.21,27000.0,1.0,13261778.01,36022.0,1.0
Bury Metropolitan Borough Council,Ramsbottom Library & Adult Learning Centre,-2.3197405,53.6489384,destination,405854.11,1698.0,1.0,1533014.71,4145.0,1.0,3298341.58,6796.0,1.0,5736448.77,10042.0,1.0,8621245.23,12485.0,0.9879,12198667.76,14485.0,0.9707
Calderdale Metropolitan Borough Council,Akroyd,-1.864733,53.733591,destination,330360.25,2227.0,0.9464,976603.93,4318.0,0.6994,2346241.32,6228.0,0.7468,4650080.81,11394.0,0.8326,7657031.52,18606.0,0.8774,11632713.31,29481.0,0.9257
Calderdale Metropolitan Borough Council,Beechwood Road,-1.884113,53.74757,destination,187477.14,688.0,0.5371,1043266.52,3585.0,0.7472,2267296.26,7460.0,0.7217,4071279.65,13244.0,0.729,6105632.84,20166.0,0.6997,8898622.07,26371.0,0.7081
Calderdale Metropolitan Borough Council,Brighouse,-1.786043,53.703978,destination,295869.28,1486.0,0.8476,1106059.18,4624.0,0.7922,2775101.18,8492.0,0.8833,5794192.44,14668.0,1.0,9257948.2,20541.0,1.0,13240738.51,26373.0,1.0
Calderdale Metropolitan Borough Council,Central Library & Archives Halifax,-1.855085,53.722381,destination,346522.76,320.0,0.9927,1347646.16,2106.0,0.9652,3329204.43,7745.0,1.0,6237890.72,18859.0,1.0,10020279.04,30987.0,1.0,14557503.85,45019.0,1.0
Calderdale Metropolitan Borough Council,Elland,-1.837711,53.684878,destination,302274.6,2576.0,0.866,1391746.03,5986.0,0.9968,3156506.96,8567.0,1.0,5532539.23,11318.0,0.9906,8473678.03,14102.0,0.971,12363295.42,18794.0,0.9838
Calderdale Metropolitan Borough Council,Hebden Bridge,-2.012061,53.741235,destination,313375.34,1653.0,0.8978,1372232.23,3764.0,0.9828,3426710.5,5395.0,1.0,6241928.94,6539.0,1.0,9770579.39,7681.0,1.0,14104439.07,10037.0,1.0
Calderdale Metropolitan Borough Council,King Cross,-1.882279,53.714537,destination,345517.43,2114.0,0.9898,1506262.3,10747.0,1.0,3514800.54,19868.0,1.0,6283231.76,32145.0,1.0,9533342.61,42368.0,1.0,13241014.96,51504.0,1.0
Calderdale Metropolitan Borough Council,Mixenden,-1.909061,53.753664,destination,238563.11,971.0,0.6834,789186.43,2822.0,0.5652,2411430.49,3994.0,0.7676,4730479.2,6491.0,0.847,7899298.28,10842.0,0.9052,12095370.83,15423.0,0.9625
Calderdale Metropolitan Borough Council,Northowram,-1.829979,53.739902,destination,370194.52,2028.0,1.0,1568691.56,3971.0,1.0,3034754.18,5206.0,0.966,5382660.96,6636.0,0.9638,8600666.79,8353.0,0.9856,11671877.42,11412.0,0.9288
Calderdale Metropolitan Borough Council,Rastrick,-1.793582,53.68961,destination,297033.84,1425.0,0.8509,1350458.81,6291.0,0.9672,3080442.14,10516.0,0.9805,5044061.61,12795.0,0.9031,7738247.69,15350.0,0.8867,10812838.11,20455.0,0.8605
Calderdale Metropolitan Borough Council,Sowerby Bridge,-1.912702,53.708943,destination,118943.19,618.0,0.3407,690579.75,3430.0,0.4946,2044602.98,7706.0,0.6508,4331412.96,12196.0,0.7755,7367275.92,15456.0,0.8442,10931699.53,19795.0,0.8699
Calderdale Metropolitan Borough Council,Todmorden,-2.098838,53.712684,destination,345130.29,962.0,0.9887,1372362.3,3723.0,0.9829,3370754.22,7010.0,1.0,5869796.34,9278.0,1.0,9295946.16,10305.0,1.0,13390300.73,11728.0,1.0
Cambridgeshire County Council,Arbury Court Library,0.1280293,52.2252451,destination,316658.88,1856.0,0.9072,1295594.63,8280.0,0.9279,3199519.5,20088.0,1.0,5559382.57,32562.0,0.9954,8317789.97,42329.0,0.9531,11735193.98,53676.0,0.9339
Cambridgeshire County Council,Bar Hill Library,0.0209095,52.252719,destination,321477.61,755.0,0.921,1349330.29,3831.0,0.9664,2054499.12,4461.0,0.654,3042310.59,4793.0,0.5447,4830447.29,5058.0,0.5535,6643470.76,5185.0,0.5287
Cambridgeshire County Council,Barnwell Road Library,0.1632766,52.2114578,destination,366586.12,1823.0,1.0,1430764.01,6467.0,1.0,2890148.13,8388.0,0.92,4790977.35,12341.0,0.8578,7205650.07,21988.0,0.8257,10241996.12,35731.0,0.815
Cambridgeshire County Council,Buckden Library,-0.2469494,52.2919747,destination,268326.8,974.0,0.7687,1044744.32,2056.0,0.7482,1905180.91,2466.0,0.6064,2618375.57,2532.0,0.4688,3827646.79,2701.0,0.4386,6818731.12,2937.0,0.5426
Cambridgeshire County Council,Burwell Library,0.3265203,52.2792656,destination,310730.59,1305.0,0.8902,1155166.05,4263.0,0.8273,2247821.9,5500.0,0.7155,3956337.08,6024.0,0.7084,5466657.59,6288.0,0.6264,6629278.15,6339.0,0.5275
Cambridgeshire County Council,Cambourne Library,-0.0659531,52.2187916,destination,343069.35,1531.0,0.9828,1358517.75,4189.0,0.973,2824460.33,7388.0,0.8991,4425263.18,8803.0,0.7923,6026178.41,8889.0,0.6905,7669604.31,9130.0,0.6103
Cambridgeshire County Council,Cambridge Central Library,0.1205449,52.2046083,destination,327390.32,2496.0,0.9379,1455640.09,9366.0,1.0,3429770.35,18712.0,1.0,6084519.67,34687.0,1.0,9538012.62,49418.0,1.0,14060689.55,65838.0,1.0
Cambridgeshire County Council,Chatteris Library,0.0480909,52.4574516,destination,245108.32,1162.0,0.7022,993530.53,4051.0,0.7116,2128454.59,7227.0,0.6775,3868780.59,9592.0,0.6927,5680973.82,10482.0,0.651,7266636.56,10523.0,0.5783
Cambridgeshire County Council,Cherry Hinton Library,0.1738903,52.186903,destination,386154.33,2487.0,1.0,1463481.42,7396.0,1.0,3216088.21,12917.0,1.0,5107234.65,17845.0,0.9144,7200208.96,23675.0,0.8251,9757464.0,31705.0,0.7765
Cambridgeshire County Council,Clay Farm Library,0.1226657,52.1735065,destination,373654.84,390.0,1.0,1566479.8,2067.0,1.0,3032401.18,3630.0,0.9652,4864755.74,5391.0,0.871,7563952.2,7589.0,0.8668,10722751.18,11951.0,0.8533
Cambridgeshire County Council,Comberton Library,0.0111335,52.1848892,destination,217897.64,229.0,0.6242,615554.45,766.0,0.4409,1479968.72,1431.0,0.4711,2505069.49,2149.0,0.4485,3930731.01,2791.0,0.4504,5070070.36,2864.0,0.4035
Cambridgeshire County Council,Cottenham Library,0.1269387,52.2894228,destination,269225.72,1227.0,0.7713,1086733.29,4007.0,0.7783,2314780.23,5601.0,0.7368,3935298.65,5936.0,0.7046,5416709.86,6066.0,0.6207,7288701.7,6110.0,0.58
Cambridgeshire County Council,Ely Library,0.2666227,52.3996921,destination,324818.34,1221.0,0.9305,1410470.92,4382.0,1.0,3105453.6,9472.0,0.9885,5748293.71,16507.0,1.0,8615508.99,19921.0,0.9873,11188725.64,20292.0,0.8904
Cambridgeshire County Council,Great Shelford Library,0.1365161,52.1467478,destination,242344.66,707.0,0.6943,1004179.13,2283.0,0.7192,2275311.78,4261.0,0.7243,3638441.48,5644.0,0.6515,5773086.74,6286.0,0.6615,7745936.13,6674.0,0.6164
Cambridgeshire County Council,Histon Library,0.1050683,52.253078,destination,353758.16,1499.0,1.0,1412766.66,4630.0,1.0,2815313.54,6182.0,0.8961,4318895.04,7006.0,0.7733,6465312.51,7731.0,0.7409,9635476.48,8440.0,0.7668
Cambridgeshire County Council,Huntingdon Library,-0.1844521,52.3296505,destination,377278.75,1031.0,1.0,1490527.65,4075.0,1.0,3215739.0,6761.0,1.0,5475543.33,11779.0,0.9804,8345412.89,18693.0,0.9563,11820390.92,26422.0,0.9406
Cambridgeshire County Council,Linton Library,0.2864177,52.0980623,destination,246396.18,1175.0,0.7059,1124248.98,3190.0,0.8052,2518460.91,4212.0,0.8017,4260922.94,4537.0,0.7629,6107468.51,4644.0,0.6999,7912400.25,4812.0,0.6296
Cambridgeshire County Council,Littleport Library,0.3076875,52.4567162,destination,336441.46,1817.0,0.9638,1363711.67,4584.0,0.9767,3012951.76,6920.0,0.9591,4908651.27,7976.0,0.8789,7529203.91,8222.0,0.8628,9743555.31,8358.0,0.7754
Cambridgeshire County Council,March Library,0.0864835,52.5497074,destination,278050.5,815.0,0.7966,1352594.24,5042.0,0.9687,3167053.91,12837.0,1.0,5541376.34,18286.0,0.9922,7786552.72,21163.0,0.8923,10742244.58,22076.0,0.8548
Cambridgeshire County Council,Milton Road Library,0.1290224,52.2181513,destination,329036.09,2088.0,0.9426,1311209.9,7658.0,0.9391,3175958.51,18689.0,1.0,5779636.41,36108.0,1.0,9107933.62,56096.0,1.0,12943913.18,69669.0,1.0
Cambridgeshire County Council,Papworth Library,-0.118647,52.251091,destination,271207.37,900.0,0.777,1146804.79,2536.0,0.8213,2018745.28,2889.0,0.6426,2759705.24,3057.0,0.4941,3225932.27,3061.0,0.3697,3950339.52,3096.0,0.3144
Cambridgeshire County Council,Ramsey Library,-0.1067419,52.4494219,destination,367507.1,1580.0,1.0,1426909.91,3855.0,1.0,3174951.97,5373.0,1.0,5689576.24,6814.0,1.0,7714691.82,7396.0,0.884,9907871.01,7682.0,0.7884
Cambridgeshire County Council,Rock Road Library,0.1423351,52.1863204,destination,287909.43,1909.0,0.8248,1339042.96,6757.0,0.959,2821956.54,14264.0,0.8983,5054130.19,25654.0,0.9049,8300624.11,37148.0,0.9512,12172456.87,46713.0,0.9687
Cambridgeshire County Council,Sawston Library,0.163731,52.126461,destination,222452.36,838.0,0.6373,907865.31,2377.0,0.6502,1980016.66,4828.0,0.6303,3456811.7,6410.0,0.6189,5032852.74,7553.0,0.5767,6200202.87,8113.0,0.4934
Cambridgeshire County Council,Sawtry Library,-0.283752,52.437225,destination,346528.74,1307.0,0.9927,1422007.73,4685.0,1.0,2666149.91,5201.0,0.8487,3984638.0,5276.0,0.7134,5800638.09,5317.0,0.6647,7435482.65,5359.0,0.5917
Cambridgeshire County Council,Soham Library,0.3364428,52.3316291,destination,341471.81,1189.0,0.9782,1418523.23,4178.0,1.0,2930474.0,6661.0,0.9328,4785723.98,8830.0,0.8569,7365369.85,10338.0,0.844,9973466.54,10780.0,0.7937
Cambridgeshire County Council,St Ives Library,-0.068889,52.3225053,destination,297706.91,554.0,0.8529,1251343.1,2420.0,0.8962,2684869.26,5055.0,0.8546,4947276.26,7312.0,0.8858,7503518.88,10443.0,0.8598,11099228.01,14565.0,0.8832
Cambridgeshire County Council,St Neots Library,-0.2719248,52.2288206,destination,255298.99,837.0,0.7314,1279922.17,4120.0,0.9167,2940142.05,11321.0,0.9359,5528840.32,18569.0,0.9899,8696543.73,25100.0,0.9966,12088553.88,31970.0,0.962
Cambridgeshire County Council,Warboys Library,-0.0799174,52.4033036,destination,343392.94,1188.0,0.9837,1203682.77,3013.0,0.8621,2471897.03,3550.0,0.7868,3259588.22,3639.0,0.5836,5244780.38,3759.0,0.601,7297592.04,3907.0,0.5807
Cambridgeshire County Council,Whittlesey Library,-0.1304823,52.5563637,destination,295161.71,1303.0,0.8456,1420261.9,5022.0,1.0,2832877.09,8705.0,0.9017,5149892.08,11620.0,0.9221,7263031.67,12975.0,0.8323,9310346.63,13517.0,0.7409
Cambridgeshire County Council,Willingham Library,0.0642495,52.3142832,destination,382702.68,886.0,1.0,1529528.09,2415.0,1.0,3120413.79,3787.0,0.9933,4500424.42,4059.0,0.8058,5854976.0,4141.0,0.6709,7208761.39,4227.0,0.5737
Cambridgeshire County Council,Wisbech Library,0.1610302,52.6643605,destination,262348.0,926.0,0.7516,1281878.6,4593.0,0.9181,2970165.42,9321.0,0.9454,5272994.31,17090.0,0.9441,8136003.97,23825.0,0.9323,11170468.95,26283.0,0.8889
Cambridgeshire County Council,Yaxley Library,-0.251101,52.516866,destination,275379.28,1080.0,0.7889,1225379.91,4208.0,0.8776,2787810.24,7247.0,0.8874,4325046.35,9352.0,0.7744,6549301.31,9610.0,0.7505,8578141.93,10965.0,0.6826
Central Bedfordshire Council,Ampthill Library,-0.4954502,52.0260284,destination,296338.41,1512.0,0.8489,1305958.07,5055.0,0.9353,2785917.2,7138.0,0.8868,4741902.86,7938.0,0.849,7351202.96,9614.0,0.8424,10942154.59,12994.0,0.8707
Central Bedfordshire Council,Barton Library,-0.4268731,51.966772,destination,330646.4,1656.0,0.9472,1444220.92,4531.0,1.0,3187301.0,5019.0,1.0,5270789.98,5202.0,0.9437,7473618.19,5336.0,0.8564,9975976.17,5419.0,0.7939
Central Bedfordshire Council,Biggleswade Library,-0.2592031,52.0874209,destination,385634.3,1996.0,1.0,1610421.65,8234.0,1.0,3619444.45,13857.0,1.0,6458279.07,16527.0,1.0,9560388.75,17157.0,1.0,14229284.64,17608.0,1.0
Central Bedfordshire Council,Dunstable Library,-0.5222223,51.8904276,destination,315436.57,1357.0,0.9037,1261979.13,4847.0,0.9038,3160753.05,11698.0,1.0,5604937.44,20032.0,1.0,8953367.55,30272.0,1.0,13177496.36,44367.0,1.0
Central Bedfordshire Council,Flitwick Library,-0.4969335,52.0024764,destination,267802.85,1058.0,0.7672,1313508.91,6105.0,0.9407,2981063.29,11830.0,0.9489,5119173.11,13401.0,0.9166,7411751.22,13902.0,0.8493,10059124.38,14694.0,0.8005
Central Bedfordshire Council,Houghton Regis Library,-0.5198857,51.9054321,destination,360090.99,1743.0,1.0,1428932.32,6518.0,1.0,3243145.46,11335.0,1.0,5500920.51,18089.0,0.9849,8822712.51,24688.0,1.0,12635759.61,33307.0,1.0
Central Bedfordshire Council,Leighton Buzzard Library,-0.6592272,51.9158702,destination,337582.26,1702.0,0.9671,1326549.15,6735.0,0.9501,3204629.91,14233.0,1.0,6124597.62,25659.0,1.0,9788239.89,33904.0,1.0,13217460.91,37776.0,1.0
Central Bedfordshire Council,Potton Library,-0.2141426,52.1276859,destination,323216.85,1610.0,0.9259,1230256.48,3506.0,0.8811,3084157.66,4637.0,0.9817,4835452.25,4848.0,0.8658,6578326.96,5008.0,0.7538,8512988.2,5175.0,0.6774
Central Bedfordshire Council,Sandy Library,-0.2892287,52.1293926,destination,373318.61,1758.0,1.0,1379060.42,6105.0,0.9877,3168338.19,8831.0,1.0,5260766.26,10641.0,0.9419,7175855.93,11970.0,0.8223,9748853.66,12177.0,0.7758
Central Bedfordshire Council,Shefford Library,-0.3342547,52.038044,destination,300017.4,1104.0,0.8595,1358129.56,4596.0,0.9727,3077559.43,6278.0,0.9796,5249201.07,6577.0,0.9399,7876529.26,7606.0,0.9026,10289407.51,8738.0,0.8188
Central Bedfordshire Council,Stotfold Library,-0.2324762,52.0156097,destination,344556.23,1664.0,0.9871,1499798.4,4932.0,1.0,3115870.06,6971.0,0.9918,4989321.4,7286.0,0.8933,7334071.92,7840.0,0.8404,10652749.35,11376.0,0.8477
Central Bedfordshire Council,Toddington Library,-0.5314167,51.9490155,destination,230769.07,428.0,0.6611,1347629.26,2357.0,0.9652,3284896.76,4315.0,1.0,5323977.2,4521.0,0.9533,7256391.85,4562.0,0.8315,9935989.37,4612.0,0.7907
Cheshire East Council,Alderley Edge Library,-2.2365407,53.3008022,destination,352812.05,1060.0,1.0,1411637.27,3049.0,1.0,2900970.72,4493.0,0.9234,5650429.88,5069.0,1.0,8685910.24,5867.0,0.9953,12663341.45,8345.0,1.0
Cheshire East Council,Alsager Library,-2.3049807,53.0965181,destination,374948.7,949.0,1.0,1465456.73,4329.0,1.0,3361944.81,8259.0,1.0,5876644.48,11057.0,1.0,8952409.08,13508.0,1.0,11529630.08,13891.0,0.9175
Cheshire East Council,Bollington Library,-2.1028708,53.298054,destination,309566.06,733.0,0.8868,1242407.4,3418.0,0.8898,2805276.5,5616.0,0.8929,5122126.44,7247.0,0.9171,8827081.94,7866.0,1.0,13327960.19,8306.0,1.0
Cheshire East Council,Congleton Library,-2.2114806,53.163609,destination,323898.79,766.0,0.9279,1484424.17,4131.0,1.0,3462487.37,10375.0,1.0,6283226.45,16114.0,1.0,9689781.5,21087.0,1.0,13624474.57,25707.0,1.0
Cheshire East Council,Crewe Library,-2.4392909,53.0964784,destination,179386.0,135.0,0.5139,1032154.18,3620.0,0.7392,2670904.41,12680.0,0.8502,5172609.42,23759.0,0.9262,8305637.46,36634.0,0.9518,12343578.13,46729.0,0.9823
Cheshire East Council,Disley Library,-2.0384479,53.3585311,destination,380577.76,874.0,1.0,1624374.7,3118.0,1.0,3351566.33,3517.0,1.0,5480197.12,4008.0,0.9812,8496881.6,5194.0,0.9737,11919338.8,6851.0,0.9485
Cheshire East Council,Handforth Library,-2.2146923,53.3481871,destination,403065.0,1505.0,1.0,1564455.76,4693.0,1.0,3172703.63,7832.0,1.0,5746204.2,11126.0,1.0,8960934.84,16117.0,1.0,12565540.49,21976.0,0.9999
Cheshire East Council,Holmes Chapel Library,-2.3564102,53.2005303,destination,320661.91,1143.0,0.9186,1305090.75,3559.0,0.9347,2723728.6,5139.0,0.867,4504143.5,5763.0,0.8065,6518061.63,6255.0,0.7469,9343850.58,6531.0,0.7436
Cheshire East Council,Knutsford Library,-2.3742248,53.3018775,destination,368743.49,1011.0,1.0,1504512.44,4400.0,1.0,3591426.93,8790.0,1.0,6178817.32,11521.0,1.0,9576474.53,13007.0,1.0,12946129.99,13514.0,1.0
Cheshire East Council,Macclesfield Library,-2.1253882,53.2615383,destination,406872.34,1141.0,1.0,1667708.37,6341.0,1.0,3835209.02,15363.0,1.0,6743351.74,25207.0,1.0,10257767.46,34476.0,1.0,14241323.87,43861.0,1.0
Cheshire East Council,Middlewich Library,-2.4443378,53.1917485,destination,271183.82,569.0,0.7769,1332129.75,4398.0,0.9541,3205075.14,9024.0,1.0,5358944.14,11942.0,0.9595,7972254.79,13472.0,0.9136,10262209.61,14043.0,0.8166
Cheshire East Council,Nantwich Library,-2.5195454,53.0689149,destination,364135.25,1628.0,1.0,1494914.14,6147.0,1.0,3367545.24,11237.0,1.0,5945417.62,15653.0,1.0,9243548.39,17702.0,1.0,12999068.12,18711.0,1.0
Cheshire East Council,Poynton Library,-2.1177482,53.3497251,destination,214499.96,671.0,0.6145,1159037.49,4242.0,0.8301,2740030.42,9558.0,0.8722,4807590.38,11432.0,0.8608,7636367.58,13356.0,0.8751,11631010.03,15457.0,0.9256
Cheshire East Council,Prestbury Library,-2.1521661,53.2885561,destination,371712.01,636.0,1.0,1287524.31,1426.0,0.9221,3047907.39,2377.0,0.9702,5582251.27,3132.0,0.9995,8555810.01,4180.0,0.9804,11469078.4,7181.0,0.9127
Cheshire East Council,Sandbach Library,-2.3609287,53.1454147,destination,342598.08,897.0,0.9815,1438923.53,3851.0,1.0,3392900.83,7713.0,1.0,5577936.15,9699.0,0.9987,8556679.67,12361.0,0.9805,12915983.75,16293.0,1.0
Cheshire East Council,Wilmslow Library,-2.2326032,53.3243604,destination,234706.71,653.0,0.6724,1160202.57,3234.0,0.8309,2762108.26,7080.0,0.8792,5266829.68,12703.0,0.943,8413002.16,18750.0,0.9641,12338449.13,24267.0,0.9819
Cheshire West and Chester Council,Barnton Library,-2.5500975,53.2748857,destination,287158.22,1649.0,0.8226,1059461.47,4841.0,0.7588,2339857.81,5696.0,0.7448,3854304.91,6046.0,0.6901,5497827.85,6694.0,0.63,8516482.08,8273.0,0.6777
Cheshire West and Chester Council,Blacon Library,-2.9266968,53.208466,destination,357738.34,1724.0,1.0,1364282.64,6103.0,0.9771,2786476.37,11834.0,0.887,4375775.59,13530.0,0.7835,6772835.99,14501.0,0.7761,9892261.01,19116.0,0.7872
Cheshire West and Chester Council,Chester Library at Storyhouse,-2.8927946,53.1922331,destination,336999.22,895.0,0.9654,1439227.04,6515.0,1.0,3249374.34,14316.0,1.0,6115270.49,22888.0,1.0,9954112.11,31090.0,1.0,14374311.67,41130.0,1.0
Cheshire West and Chester Council,Ellesmere Port Library,-2.9018791,53.2763752,destination,333972.08,849.0,0.9568,1317466.31,5182.0,0.9436,2969169.16,11222.0,0.9451,5434506.87,19748.0,0.973,8419210.74,28937.0,0.9648,11875549.49,37937.0,0.945
Cheshire West and Chester Council,Frodsham Library,-2.7263107,53.2938005,destination,235592.88,763.0,0.6749,1188910.65,2691.0,0.8515,2646306.63,5878.0,0.8423,4876420.44,8172.0,0.8731,7658981.61,8900.0,0.8777,10526387.76,9133.0,0.8377
Cheshire West and Chester Council,Great Boughton Library,-2.8541708,53.1973116,destination,305778.97,1636.0,0.876,1038695.26,4439.0,0.7439,2357382.63,7595.0,0.7504,4654234.2,13555.0,0.8333,7558309.64,19774.0,0.8661,11645985.67,28332.0,0.9268
Cheshire West and Chester Council,Helsby Library,-2.7717172,53.2702947,destination,205031.5,709.0,0.5874,873484.55,2675.0,0.6256,1852386.0,4112.0,0.5896,3063306.55,4691.0,0.5485,4822805.81,5241.0,0.5527,6986009.9,5556.0,0.5559
Cheshire West and Chester Council,Hoole Library,-2.874411,53.198763,destination,352172.23,2684.0,1.0,1318733.99,7150.0,0.9445,2907794.46,15806.0,0.9256,5297247.3,26424.0,0.9485,8689386.57,38522.0,0.9957,13013255.67,48238.0,1.0
Cheshire West and Chester Council,Hope Farm Library,-2.921167,53.2659686,destination,243305.81,1424.0,0.697,1160420.23,6239.0,0.8311,2860633.23,13402.0,0.9106,4859153.59,21123.0,0.87,7364064.48,28098.0,0.8439,10362134.89,36090.0,0.8246
Cheshire West and Chester Council,Lache Library,-2.912525,53.1775055,destination,343512.31,1698.0,0.9841,1335250.85,5105.0,0.9563,2659637.74,9266.0,0.8466,4112700.65,12989.0,0.7364,6108468.46,16190.0,0.7,8768311.99,19955.0,0.6978
Cheshire West and Chester Council,Little Sutton Library,-2.9468408,53.2872809,destination,214229.01,794.0,0.6137,1098849.2,3879.0,0.787,2783919.98,8416.0,0.8861,4951782.61,13044.0,0.8866,7436867.45,17424.0,0.8522,9833566.53,23058.0,0.7825
Cheshire West and Chester Council,Malpas Library,-2.761581,53.027799,destination,319207.47,112.0,0.9145,1070282.46,550.0,0.7665,2369782.29,1304.0,0.7543,4702163.81,1653.0,0.8419,6719944.11,1761.0,0.77,8489907.09,1888.0,0.6756
Cheshire West and Chester Council,Neston Library,-3.0671444,53.2899601,destination,430324.56,978.0,1.0,1585552.74,4489.0,1.0,3454579.64,8790.0,1.0,5431388.85,12659.0,0.9725,7698482.03,14675.0,0.8822,9715820.73,15080.0,0.7732
Cheshire West and Chester Council,Northwich Library,-2.5099648,53.262329,destination,353940.82,734.0,1.0,1228266.97,2540.0,0.8797,2767999.54,6742.0,0.8811,5373521.0,11441.0,0.9621,8319219.45,16366.0,0.9533,12542221.83,24540.0,0.9981
Cheshire West and Chester Council,Sandiway Library,-2.599766,53.2343663,destination,322213.42,1406.0,0.9231,1239153.43,3100.0,0.8875,2962543.53,4024.0,0.943,5125888.6,4265.0,0.9178,8064902.03,4820.0,0.9242,11839631.52,5756.0,0.9422
Cheshire West and Chester Council,Tarporley Library,-2.6652284,53.1535314,destination,215522.22,597.0,0.6174,1092918.45,1674.0,0.7827,2644334.7,2391.0,0.8417,4839030.33,2663.0,0.8664,8083379.06,2822.0,0.9263,11302512.13,3077.0,0.8994
Cheshire West and Chester Council,Tarvin Library,-2.768678,53.194405,destination,225393.74,656.0,0.6457,993839.87,1922.0,0.7118,1954194.57,2238.0,0.622,4159188.01,2396.0,0.7447,6199228.06,2541.0,0.7104,8600392.28,2810.0,0.6844
Cheshire West and Chester Council,Tattenhall Library,-2.7680816,53.1233288,destination,399864.35,548.0,1.0,1223081.89,1485.0,0.876,2088881.19,1797.0,0.6649,2486773.67,1815.0,0.4453,4423380.29,1909.0,0.5069,6882232.99,2069.0,0.5477
Cheshire West and Chester Council,Upton Library,-2.8845305,53.2132306,destination,238416.33,622.0,0.683,1114590.17,3613.0,0.7983,2757802.62,8996.0,0.8778,4746522.77,14487.0,0.8499,7826492.13,22466.0,0.8968,11792771.46,29946.0,0.9384
Cheshire West and Chester Council,Weaverham Library,-2.5764209,53.2608104,destination,288661.88,871.0,0.827,1180414.91,4196.0,0.8454,2601351.58,5904.0,0.828,4533245.75,6234.0,0.8117,6054759.84,6439.0,0.6938,8317406.32,7053.0,0.6619
Cheshire West and Chester Council,Wharton Library,-2.5037884,53.195736,destination,261762.83,1708.0,0.7499,1030884.26,5223.0,0.7383,2175614.28,7428.0,0.6925,4352039.97,10061.0,0.7792,6603988.74,11456.0,0.7568,9088672.23,13756.0,0.7233
Cheshire West and Chester Council,Winsford Library,-2.528702,53.1925626,destination,299494.33,484.0,0.858,1370730.79,3993.0,0.9817,3303577.09,9831.0,1.0,5923023.54,16120.0,1.0,8899753.4,24873.0,1.0,12396686.46,29271.0,0.9865
City of Bradford Metropolitan District Council,Baildon Library,-1.766494,53.853939,destination,396583.96,1935.0,1.0,1603224.46,6002.0,1.0,3532381.61,10454.0,1.0,6375141.72,14431.0,1.0,9086734.69,16465.0,1.0,11971945.72,18873.0,0.9527
City of Bradford Metropolitan District Council,Bingley Library,-1.836707,53.847206,destination,280442.55,680.0,0.8034,1348066.62,5199.0,0.9655,3145851.7,9045.0,1.0,5676266.1,13581.0,1.0,8694345.52,17780.0,0.9963,12820485.86,22707.0,1.0
City of Bradford Metropolitan District Council,City Library,-1.755094,53.793062,destination,351258.36,939.0,1.0,1587621.76,6552.0,1.0,3695714.73,15596.0,1.0,6733328.38,32068.0,1.0,10473043.5,61343.0,1.0,15310469.42,97463.0,1.0
City of Bradford Metropolitan District Council,Clayton Library,-1.819757,53.783299,destination,359459.25,2074.0,1.0,1417947.56,5641.0,1.0,2594028.15,9026.0,0.8257,4114864.66,12455.0,0.7368,6860574.18,19551.0,0.7862,10778769.4,32721.0,0.8577
City of Bradford Metropolitan District Council,Eccleshill Library,-1.730668,53.817053,destination,387520.02,2606.0,1.0,1586801.22,11009.0,1.0,3527499.39,20702.0,1.0,6267792.84,36746.0,1.0,9781417.39,52045.0,1.0,13932031.08,71717.0,1.0
City of Bradford Metropolitan District Council,Ilkley Library,-1.821805,53.924139,destination,374610.31,1818.0,1.0,1634633.71,6164.0,1.0,3712001.48,9944.0,1.0,6523689.21,13694.0,1.0,9578506.74,15516.0,1.0,13423676.17,15818.0,1.0
City of Bradford Metropolitan District Council,Keighley Library,-1.909955,53.868198,destination,379804.93,2712.0,1.0,1612842.72,9950.0,1.0,3637636.52,20331.0,1.0,6197147.08,29693.0,1.0,9265585.81,38202.0,1.0,12934665.69,44810.0,1.0
City of Bradford Metropolitan District Council,Laisterdyke Library,-1.720679,53.793302,destination,347994.33,3400.0,0.9969,1435334.13,12607.0,1.0,3216682.1,23537.0,1.0,5674283.29,34366.0,1.0,8593742.01,46362.0,0.9848,13021433.33,63093.0,1.0
City of Bradford Metropolitan District Council,Manningham Library,-1.77186,53.805697,destination,351943.79,3778.0,1.0,1469449.12,15377.0,1.0,3378693.67,28033.0,1.0,6026383.15,42136.0,1.0,9536365.32,56026.0,1.0,13887533.66,78570.0,1.0
City of Bradford Metropolitan District Council,Shipley Library,-1.778812,53.832841,destination,312193.45,982.0,0.8944,1324789.57,5266.0,0.9488,3096576.08,13335.0,0.9857,5924661.12,23854.0,1.0,9173909.58,33718.0,1.0,13451221.32,45425.0,1.0
City of Bradford Metropolitan District Council,Wibsey Library,-1.777141,53.766168,destination,347156.36,2225.0,0.9945,1548268.43,8960.0,1.0,3498276.99,19269.0,1.0,6176319.07,33601.0,1.0,9753816.74,56571.0,1.0,14170825.63,73994.0,1.0
City of Bradford Metropolitan District Council,Wyke Library,-1.771384,53.742492,destination,273190.71,1268.0,0.7826,1398023.89,5419.0,1.0,3106778.75,9095.0,0.9889,5684723.42,11542.0,1.0,8832028.08,16893.0,1.0,12444579.86,25545.0,0.9903
City of London Corporation,Artizan Street Library & Community Centre,-0.0767703,51.5156579,destination,321927.21,2417.0,0.9223,1444078.07,9802.0,1.0,3373982.96,27309.0,1.0,6178452.66,58606.0,1.0,9748570.05,111600.0,1.0,14231611.6,186763.0,1.0
City of London Corporation,Barbican Library,-0.0941026,51.5199608,destination,175426.7,3038.0,0.5026,1090687.54,10852.0,0.7811,2792564.1,23879.0,0.8889,5430716.8,47657.0,0.9724,8765128.0,86367.0,1.0,13070050.69,144472.0,1.0
City of London Corporation,Shoe Lane Library,-0.1065568,51.5154413,destination,363774.13,758.0,1.0,1538105.13,5195.0,1.0,3391395.85,18994.0,1.0,6360830.19,50485.0,1.0,10277357.43,90601.0,1.0,15121004.47,135645.0,1.0
City of Westminster,Charing Cross Library,-0.1280999,51.5102745,destination,391034.09,2593.0,1.0,1684524.55,10262.0,1.0,3708489.61,17128.0,1.0,6606010.97,33808.0,1.0,10284988.61,68789.0,1.0,15042071.14,118765.0,1.0
City of Westminster,Church Street Library,-0.1701594,51.5230333,destination,336674.84,9591.0,0.9645,1327611.92,28685.0,0.9508,2980243.55,53319.0,0.9486,5679854.86,92968.0,1.0,9264196.72,131263.0,1.0,13661532.0,181246.0,1.0
City of Westminster,Little Venice Sports Centre Library Satellite library,-0.177185,51.5225401,destination,184815.27,3273.0,0.5295,1040037.53,19238.0,0.7449,2743190.06,51229.0,0.8732,5297581.43,99780.0,0.9485,8811542.98,143839.0,1.0,13266203.7,191621.0,1.0
City of Westminster,Maida Vale Library,-0.1904345,51.5246697,destination,334549.6,8099.0,0.9584,1420621.07,32973.0,1.0,3319589.97,69333.0,1.0,6111521.7,124291.0,1.0,9774714.23,189943.0,1.0,14449001.06,244727.0,1.0
City of Westminster,Marylebone Library,-0.1506059,51.5189227,destination,361612.35,4639.0,1.0,1442713.05,17975.0,1.0,3389148.83,37789.0,1.0,6083882.27,62976.0,1.0,9640455.52,93419.0,1.0,14116553.0,137085.0,1.0
City of Westminster,Mayfair Library,-0.1511226,51.5093716,destination,354415.77,1710.0,1.0,1523781.62,5460.0,1.0,3448340.12,12489.0,1.0,6271616.66,36437.0,1.0,10021536.03,75135.0,1.0,14608172.36,127017.0,1.0
City of Westminster,Paddington Children's Library,-0.190422,51.518687,destination,298983.28,5478.0,0.8565,1327570.84,29498.0,0.9508,3219131.52,66291.0,1.0,5946010.34,112259.0,1.0,9577943.08,167585.0,1.0,13885232.32,224977.0,1.0
City of Westminster,Paddington Library,-0.188642,51.517419,destination,370038.89,7068.0,1.0,1500327.54,33540.0,1.0,3497956.74,66945.0,1.0,6322488.09,112968.0,1.0,10014228.91,169438.0,1.0,14537943.39,233433.0,1.0
City of Westminster,Pimlico Library,-0.1380164,51.4879775,destination,418578.76,12856.0,1.0,1320607.64,32620.0,0.9458,2684252.18,47886.0,0.8544,5035158.31,62687.0,0.9015,8599917.23,88076.0,0.9855,13240940.56,134950.0,1.0
City of Westminster,Queen's Park Library,-0.2109134,51.5270251,destination,229646.56,4866.0,0.6579,1225566.38,23866.0,0.8777,2842768.2,51954.0,0.9049,5550243.63,94930.0,0.9938,9126351.35,146714.0,1.0,13441249.92,200849.0,1.0
City of Westminster,St. John's Wood Library,-0.1724261,51.5337429,destination,344873.56,5049.0,0.988,1403054.7,17044.0,1.0,3295522.02,37884.0,1.0,6199384.06,83650.0,1.0,9911394.55,137413.0,1.0,14194154.53,209496.0,1.0
City of Westminster,Victoria Library,-0.1478419,51.4929082,destination,386390.13,4713.0,1.0,1632892.05,25486.0,1.0,3443816.48,46870.0,1.0,6220123.5,72343.0,1.0,9703393.08,91692.0,1.0,14343058.73,117949.0,1.0
City of Wolverhampton Council,Ashmore Park Library,-2.0607458,52.6135794,destination,338410.05,1723.0,0.9695,1364097.91,6992.0,0.977,2550185.31,12774.0,0.8117,4319647.29,20924.0,0.7734,6745694.78,30388.0,0.773,10473957.01,43301.0,0.8335
City of Wolverhampton Council,Bilston Library,-2.0714765,52.5681468,destination,351937.52,1401.0,1.0,1362358.04,5781.0,0.9757,3246613.72,12974.0,1.0,5642509.16,20857.0,1.0,8998033.34,32418.0,1.0,13568454.29,48084.0,1.0
City of Wolverhampton Council,Blakenhall Library,-2.1280532,52.572333,destination,341589.16,1645.0,0.9786,1436100.09,7267.0,1.0,3283169.33,16780.0,1.0,6063642.58,29347.0,1.0,9446210.96,40890.0,1.0,13498583.43,53244.0,1.0
City of Wolverhampton Council,Collingwood Library,-2.1143382,52.6201911,destination,349473.63,1323.0,1.0,1434756.44,5078.0,1.0,3350229.68,12858.0,1.0,5959157.36,23747.0,1.0,8957254.56,36221.0,1.0,12838149.83,45929.0,1.0
City of Wolverhampton Council,East Park Library,-2.0933829,52.5809869,destination,325329.26,1436.0,0.932,1306306.25,5184.0,0.9356,3148511.15,12781.0,1.0,5593854.69,20220.0,1.0,8527089.89,29354.0,0.9771,12577872.89,43872.0,1.0
City of Wolverhampton Council,Finchfield Library,-2.1753274,52.5793023,destination,256288.22,1567.0,0.7342,1216346.7,4788.0,0.8711,2684855.44,9877.0,0.8546,4829135.38,17354.0,0.8647,8031368.27,25415.0,0.9203,12088822.06,38231.0,0.962
City of Wolverhampton Council,Long Knowle Library,-2.084381,52.6120627,destination,270827.15,1047.0,0.7759,1166191.08,5281.0,0.8352,2734283.25,11787.0,0.8703,5232965.13,20503.0,0.937,8506756.47,33579.0,0.9748,12770651.96,45549.0,1.0
City of Wolverhampton Council,Low Hill Library,-2.1145515,52.6114438,destination,280843.27,1836.0,0.8046,1411309.83,9060.0,1.0,3174202.98,17178.0,1.0,5329948.02,25571.0,0.9543,8662799.43,38276.0,0.9927,12638142.27,53302.0,1.0
City of Wolverhampton Council,Pendeford Library,-2.1449974,52.6226835,destination,271580.58,1655.0,0.778,1020957.23,4495.0,0.7312,2262398.5,7454.0,0.7201,4564995.92,13541.0,0.8174,6582324.23,17579.0,0.7543,9882596.46,25328.0,0.7864
City of Wolverhampton Council,Penn Library,-2.1455804,52.5672963,destination,311053.62,1786.0,0.8911,1310165.89,6941.0,0.9383,3154064.64,15590.0,1.0,5738570.34,27980.0,1.0,9105321.72,41166.0,1.0,13183073.44,55692.0,1.0
City of Wolverhampton Council,Spring Vale Library,-2.1134924,52.5617669,destination,384521.53,1720.0,1.0,1368989.69,6505.0,0.9805,3133982.07,14420.0,0.9976,5474651.62,24549.0,0.9802,8937469.75,36185.0,1.0,13390579.61,50487.0,1.0
City of Wolverhampton Council,Tettenhall Library,-2.1822454,52.5902501,destination,374472.92,1684.0,1.0,1412554.94,4903.0,1.0,3243913.23,10575.0,1.0,5798692.12,17209.0,1.0,9481162.09,27076.0,1.0,13878595.16,39137.0,1.0
City of Wolverhampton Council,Warstones Library,-2.1657387,52.5686002,destination,332018.2,1997.0,0.9512,1478596.04,7816.0,1.0,3415452.37,16429.0,1.0,5787765.35,25594.0,1.0,8799624.85,36778.0,1.0,13011560.42,48362.0,1.0
City of Wolverhampton Council,Wednesfield Library,-2.0841922,52.5982634,destination,287663.12,867.0,0.8241,1337539.46,4821.0,0.9579,2864364.74,8629.0,0.9118,5149592.07,16441.0,0.922,8606663.0,30851.0,0.9863,12655379.75,50119.0,1.0
City of Wolverhampton Council,Whitmore Reans Library,-2.142083,52.5942792,destination,351504.91,2762.0,1.0,1550073.12,11324.0,1.0,3338391.04,20226.0,1.0,5777581.6,26844.0,1.0,9162701.56,35014.0,1.0,13436011.74,48918.0,1.0
City of Wolverhampton Council,Wolverhampton Central Library,-2.1250003,52.583187,destination,317551.93,392.0,0.9097,1400767.77,2568.0,1.0,3432668.81,8873.0,1.0,6568936.64,24294.0,1.0,10317264.83,43697.0,1.0,14948682.49,65327.0,1.0
City of York Council,Acomb Explore Library,-1.1292008,53.9537274,destination,268557.42,1087.0,0.7694,1353526.29,6286.0,0.9694,3377927.64,16304.0,1.0,5834240.41,25296.0,1.0,8770008.6,34538.0,1.0,11912546.02,43340.0,0.948
City of York Council,Bishopthorpe Library,-1.0997621,53.9209741,destination,385883.04,1342.0,1.0,1450962.33,2803.0,1.0,2614295.11,3209.0,0.8322,4252625.46,3423.0,0.7614,5879055.64,4482.0,0.6737,9629959.44,5998.0,0.7663
City of York Council,Clifton Explore Library,-1.1066308,53.9780541,destination,274004.96,1498.0,0.785,1353396.18,5409.0,0.9693,2750560.89,10598.0,0.8755,4528415.48,17343.0,0.8108,6844444.58,23590.0,0.7843,9292658.26,28785.0,0.7395
City of York Council,Copmanthorpe Library,-1.1411646,53.9156709,destination,276121.75,1157.0,0.791,1208939.22,3506.0,0.8658,2378944.19,4024.0,0.7572,3832339.6,4254.0,0.6862,5767597.39,4416.0,0.6609,7475673.36,4599.0,0.5949
City of York Council,Dringhouses Library,-1.1078006,53.9392614,destination,295749.91,705.0,0.8473,1111940.48,3327.0,0.7964,2559044.73,7045.0,0.8146,4740921.93,12054.0,0.8489,7925933.75,23525.0,0.9082,11666318.0,36019.0,0.9284
City of York Council,Dunnington Library,-0.9802381,53.9652784,destination,340579.39,1445.0,0.9757,1228885.42,2936.0,0.8801,2610556.55,3147.0,0.831,4445389.01,3238.0,0.7959,6595944.72,3357.0,0.7558,9269943.35,3532.0,0.7377
City of York Council,Fulford Library,-1.0702204,53.9368288,destination,282092.92,949.0,0.8081,1270248.55,3664.0,0.9097,2755695.84,5886.0,0.8772,4148309.4,9424.0,0.7428,6638609.03,15068.0,0.7607,10165416.43,27037.0,0.8089
City of York Council,Haxby Library,-1.0714603,54.0175496,destination,262460.75,1142.0,0.7519,1164473.48,4094.0,0.834,2318924.58,7363.0,0.7381,4091438.46,11178.0,0.7326,6117162.57,12598.0,0.701,8348795.84,13153.0,0.6644
City of York Council,Huntington Library,-1.0559146,53.9954937,destination,302782.15,984.0,0.8674,1028734.34,3122.0,0.7368,2080309.55,4517.0,0.6622,4109784.54,8574.0,0.7359,6245292.89,12046.0,0.7157,9169652.64,14951.0,0.7297
City of York Council,New Earswick Library,-1.0735537,53.9892632,destination,320473.21,1123.0,0.9181,1131078.45,3280.0,0.8101,2340441.55,6132.0,0.745,4237643.11,9896.0,0.7587,6944571.37,17098.0,0.7958,10322214.22,27071.0,0.8214
City of York Council,Poppleton Library,-1.1540798,53.9841314,destination,272497.81,754.0,0.7806,1030504.17,2478.0,0.738,2138558.05,3328.0,0.6807,3424761.31,3544.0,0.6132,5920495.25,3849.0,0.6784,8081466.06,4520.0,0.6431
City of York Council,Strensall Library,-1.0357437,54.0399757,destination,335446.55,520.0,0.961,1304536.14,2794.0,0.9343,2941274.46,4845.0,0.9362,4564066.62,5629.0,0.8172,6653278.64,5998.0,0.7624,8683637.92,6139.0,0.691
City of York Council,Tang Hall Explore Library,-1.0479591,53.9645685,destination,318006.53,1270.0,0.911,1343244.53,5827.0,0.962,2843856.46,13061.0,0.9052,5210787.35,21000.0,0.933,8029814.3,30151.0,0.9201,12111752.6,43301.0,0.9638
City of York Council,York Explore Library & Archive,-1.0862115,53.9614347,destination,345920.52,634.0,0.991,1514112.21,5316.0,1.0,3490896.43,17283.0,1.0,6256009.24,34273.0,1.0,9862579.12,51140.0,1.0,14710351.76,71608.0,1.0
Cornwall Council,Bodmin Library & Information Service,-4.7392738,50.4706198,destination,125761.46,216.0,0.3603,733309.57,2176.0,0.5252,2156065.64,6040.0,0.6863,4085525.46,8587.0,0.7315,6158951.62,10701.0,0.7058,9470060.76,13334.0,0.7536
Cornwall Council,Bude Library & Information Service,-4.548324,50.8284612,destination,287112.73,439.0,0.8225,1424494.24,2080.0,1.0,2930444.81,4797.0,0.9328,4670630.36,7154.0,0.8363,6398027.98,7816.0,0.7332,8392590.49,9013.0,0.6679
Cornwall Council,Callington Library & Information Service,-4.3117252,50.5057096,destination,235613.64,1240.0,0.675,1248141.79,3108.0,0.8939,2862004.59,4482.0,0.911,4432167.49,4921.0,0.7936,6557636.5,5805.0,0.7514,10345897.36,6088.0,0.8233
Cornwall Council,Camborne Library,-5.2980289,50.2115599,destination,419927.08,2187.0,1.0,1668575.26,7193.0,1.0,3769057.25,14045.0,1.0,6417056.87,17790.0,1.0,9856142.22,19223.0,1.0,13952526.33,21137.0,1.0
Cornwall Council,Camelford Library & Information Service,-4.679398,50.6225026,destination,328534.1,697.0,0.9412,1378245.76,1733.0,0.9871,2819485.97,2420.0,0.8975,4698766.82,2558.0,0.8413,6929871.82,2709.0,0.7941,11312811.35,2847.0,0.9002
Cornwall Council,Falmouth Library,-5.0725231,50.1556834,destination,358685.9,2079.0,1.0,1484496.09,7043.0,1.0,2830058.92,12138.0,0.9008,4754609.07,17343.0,0.8513,7373013.82,21468.0,0.8449,9592899.35,23482.0,0.7634
Cornwall Council,Hayle Library& Information Service,-5.4154494,50.1902637,destination,179899.1,1002.0,0.5154,807847.8,2892.0,0.5786,2044782.77,5603.0,0.6509,3933647.27,7003.0,0.7043,5825559.94,8198.0,0.6676,7452463.2,8838.0,0.593
Cornwall Council,Helston Library & Information Service,-5.2715582,50.1005317,destination,312545.97,1753.0,0.8954,1292864.14,5060.0,0.9259,2853080.97,7943.0,0.9082,5121092.07,9763.0,0.9169,7359307.83,11641.0,0.8433,9859500.24,11835.0,0.7846
Cornwall Council,Launceston Library & Information Service,-4.3605234,50.6356544,destination,358366.05,1410.0,1.0,1300659.45,3625.0,0.9315,3017877.01,6052.0,0.9606,5397526.19,9033.0,0.9664,7239324.2,9627.0,0.8296,10225587.11,9890.0,0.8137
Cornwall Council,Liskeard Library,-4.4649985,50.4543334,destination,397743.63,1771.0,1.0,1600822.36,5393.0,1.0,3361598.09,8931.0,1.0,5718631.14,9585.0,1.0,8749627.78,9776.0,1.0,12174241.78,9913.0,0.9688
Cornwall Council,Looe Library & Information Service,-4.4582107,50.3573923,destination,164452.64,451.0,0.4711,876734.85,2238.0,0.6279,1756881.07,4088.0,0.5592,3198975.08,4869.0,0.5728,4438058.15,5116.0,0.5086,5741859.49,5215.0,0.4569
Cornwall Council,Lostwithiel Library,-4.6701727,50.4076801,destination,392110.83,1091.0,1.0,1352233.64,2265.0,0.9685,3019909.38,2539.0,0.9613,5065261.35,2678.0,0.9069,7494221.51,2788.0,0.8588,10569688.21,2845.0,0.8411
Cornwall Council,Newquay Library & Information Service,-5.0825747,50.4132199,destination,294802.56,1335.0,0.8445,1104881.14,5761.0,0.7913,2459447.64,8949.0,0.7829,3998360.43,11951.0,0.7159,5607349.88,16110.0,0.6426,7194176.59,17804.0,0.5725
Cornwall Council,Par Community Library,-4.7016547,50.3538896,destination,248437.78,614.0,0.7117,1155246.95,1406.0,0.8274,2547441.23,3299.0,0.8109,4585800.46,6119.0,0.8211,6755282.4,8786.0,0.7741,9572702.1,9788.0,0.7618
Cornwall Council,Penryn Library,-5.101643,50.167503,destination,337704.24,1810.0,0.9675,1173231.77,3835.0,0.8403,2955028.86,6412.0,0.9406,5604202.16,9074.0,1.0,9146224.93,14179.0,1.0,12437457.25,18301.0,0.9897
Cornwall Council,Penzance Library & Information Service,-5.5404644,50.1186236,destination,278635.94,1967.0,0.7982,1297459.25,7390.0,0.9292,2626393.45,10745.0,0.836,4102579.46,14738.0,0.7346,5932646.89,17056.0,0.6798,8741904.6,19112.0,0.6957
Cornwall Council,Perranporth Library,-5.1524097,50.3465414,destination,318963.59,744.0,0.9138,1163505.42,2304.0,0.8333,2372076.36,2931.0,0.7551,4268858.89,3223.0,0.7643,7314792.52,3562.0,0.8382,9937765.18,3721.0,0.7908
Cornwall Council,Redruth Library & Information Service,-5.2262712,50.2315685,destination,368728.94,2053.0,1.0,1493137.43,6048.0,1.0,3566321.08,10795.0,1.0,6352858.59,12525.0,1.0,9891143.77,14323.0,1.0,14333812.87,16628.0,1.0
Cornwall Council,Saltash Library & Information Service,-4.2207366,50.4099718,destination,264531.48,1021.0,0.7578,1175803.68,6074.0,0.8421,2857683.29,12652.0,0.9096,4350835.47,15710.0,0.779,6349345.69,16788.0,0.7276,8057871.7,18297.0,0.6412
Cornwall Council,St. Agnes Library,-5.2043292,50.3094073,destination,198297.58,674.0,0.5681,976221.89,1847.0,0.6992,2696019.56,2666.0,0.8582,4668450.73,3128.0,0.8359,7254836.98,3340.0,0.8313,10208530.37,3517.0,0.8124
Cornwall Council,St. Austell Library,-4.7857228,50.3390956,destination,363084.88,1334.0,1.0,1439427.57,5672.0,1.0,3254737.24,11048.0,1.0,5689107.27,16077.0,1.0,8626970.21,21436.0,0.9886,12274003.54,24580.0,0.9767
Cornwall Council,St. Ives Library & Information Service,-5.4810988,50.2114682,destination,342691.52,1774.0,0.9817,1192427.5,4004.0,0.854,2223425.45,5938.0,0.7077,3421671.65,6880.0,0.6126,4877980.35,7488.0,0.559,6641038.75,8600.0,0.5285
Cornwall Council,St. Just Library,-5.6820303,50.1238989,destination,368867.74,1646.0,1.0,1638164.35,2180.0,1.0,3258240.14,2383.0,1.0,5437857.03,2626.0,0.9736,8179603.3,2815.0,0.9373,11190288.92,3013.0,0.8905
Cornwall Council,Torpoint Library & Information Service,-4.1946424,50.3749839,destination,243712.15,977.0,0.6982,658298.04,3486.0,0.4715,1199643.98,4650.0,0.3819,2073575.5,7956.0,0.3713,3735465.82,14184.0,0.4281,5598384.44,20615.0,0.4455
Cornwall Council,Truro Community Library,-5.0527956,50.2645686,destination,266829.65,840.0,0.7644,1412697.82,5520.0,1.0,3446906.05,11823.0,1.0,6132691.13,15502.0,1.0,8961838.74,17459.0,1.0,12216941.16,18559.0,0.9722
Cornwall Council,Wadebridge Library & Information Service,-4.834029,50.515191,destination,268301.53,1251.0,0.7686,1360791.06,3990.0,0.9746,3133263.42,6382.0,0.9973,5474425.33,7131.0,0.9802,7936893.01,7292.0,0.9095,11301873.25,7426.0,0.8994
Coventry City Council,Aldermoor,-1.475229,52.398437,destination,291907.93,2895.0,0.8363,1088389.36,5772.0,0.7795,2633325.58,10166.0,0.8382,4932276.61,20173.0,0.8831,8233612.98,41673.0,0.9435,11955354.47,65643.0,0.9514
Coventry City Council,Allesley Park,-1.555343,52.413015,destination,178257.03,1149.0,0.5107,1056603.53,7482.0,0.7567,2516850.34,15542.0,0.8011,4694334.02,24570.0,0.8405,7930201.58,41096.0,0.9087,11677154.93,56728.0,0.9292
Coventry City Council,Bell Green,-1.47304,52.436635,destination,301319.34,1866.0,0.8632,1418966.73,8657.0,1.0,3305996.12,18527.0,1.0,5819569.14,29166.0,1.0,8943139.02,46140.0,1.0,13082468.36,65094.0,1.0
Coventry City Council,Caludon,-1.45363,52.414683,destination,320470.79,1926.0,0.9181,1296642.75,7958.0,0.9287,3015014.7,17248.0,0.9597,5098309.09,26714.0,0.9128,8125947.59,41015.0,0.9312,11644170.47,61910.0,0.9266
Coventry City Council,Canley,-1.559428,52.394616,destination,361204.46,1777.0,1.0,1102261.2,4080.0,0.7894,2577170.39,7783.0,0.8203,5397153.43,15369.0,0.9664,8917327.79,27310.0,1.0,13183249.53,45453.0,1.0
Coventry City Council,Coundon,-1.524865,52.419998,destination,339369.39,3379.0,0.9722,1423584.18,10803.0,1.0,3430228.56,25150.0,1.0,6105437.75,43211.0,1.0,9678752.63,63393.0,1.0,13624607.19,84763.0,1.0
Coventry City Council,Coventry Central Library,-1.513211,52.40926,destination,331063.89,1036.0,0.9484,1479350.6,7806.0,1.0,3462985.42,18265.0,1.0,6514227.73,44162.0,1.0,10366027.15,73728.0,1.0,15191929.15,101463.0,1.0
Coventry City Council,Foleshill,-1.494944,52.426805,destination,330304.29,3584.0,0.9463,1330893.76,9529.0,0.9532,2959277.71,18742.0,0.942,5363229.01,37048.0,0.9603,8887354.3,61818.0,1.0,13266703.12,90619.0,1.0
Coventry City Council,Hillifields,-1.501037,52.412816,destination,322487.39,3389.0,0.9239,1361123.46,12248.0,0.9748,3095745.8,26246.0,0.9854,5724190.48,42085.0,1.0,9220821.62,65700.0,1.0,13590471.16,92964.0,1.0
Coventry City Council,Holbrooks,-1.509121,52.441374,destination,288400.44,1699.0,0.8262,1250375.44,7072.0,0.8955,2942233.94,16927.0,0.9365,5469773.53,31515.0,0.9794,8633359.16,44259.0,0.9893,12555633.45,60317.0,0.9991
Coventry City Council,Jubilee Crescent,-1.51771,52.431621,destination,344958.4,3675.0,0.9882,1378629.0,10754.0,0.9874,3093365.95,20592.0,0.9846,5509856.66,35075.0,0.9865,8914561.18,54737.0,1.0,12728643.6,76987.0,1.0
Coventry City Council,Stoke,-1.487327,52.409638,destination,377756.63,3992.0,1.0,1590542.9,17353.0,1.0,3582169.26,33339.0,1.0,6241500.82,48121.0,1.0,9719706.26,67238.0,1.0,13771312.49,89733.0,1.0
Coventry City Council,Tile Hill,-1.579265,52.40723,destination,315514.18,2064.0,0.9039,1337046.79,6908.0,0.9576,3093026.88,15134.0,0.9845,5274841.62,24304.0,0.9445,8044526.92,35251.0,0.9218,11803460.14,44986.0,0.9393
Coventry City Council,Willenhall,-1.463131,52.388988,destination,260974.55,2405.0,0.7476,1215592.79,8238.0,0.8706,2707188.37,13304.0,0.8617,4672301.6,18829.0,0.8366,7637017.79,26162.0,0.8751,10670754.8,30996.0,0.8492
Cumberland Council,Aspatria Library,-3.334192,54.763755,destination,304138.46,577.0,0.8713,1116813.67,1491.0,0.7999,1977116.69,2270.0,0.6293,3216169.6,2508.0,0.5759,5615852.37,2641.0,0.6435,8405010.54,2763.0,0.6688
Cumberland Council,Brampton Library,-2.735016,54.942279,destination,328554.9,1187.0,0.9412,1509041.16,3557.0,1.0,3439411.83,4289.0,1.0,5332235.22,4404.0,0.9547,8088581.51,4457.0,0.9269,11192849.96,4554.0,0.8907
Cumberland Council,Carlisle Library,-2.934725,54.895453,destination,351311.31,374.0,1.0,1394496.08,2136.0,0.9987,3300102.81,7553.0,1.0,6090345.5,18155.0,1.0,9631644.39,29353.0,1.0,13530934.23,41100.0,1.0
Cumberland Council,Carlisle West Library Link,-2.966778,54.890053,destination,334428.65,1621.0,0.9581,1453695.02,7100.0,1.0,3152151.57,14394.0,1.0,5324110.06,22852.0,0.9533,7914322.68,27062.0,0.9069,10772090.6,29491.0,0.8572
Cumberland Council,Cleator Moor Library,-3.516372,54.521228,destination,266343.32,1147.0,0.763,1200654.18,3142.0,0.8599,2469537.15,4695.0,0.7861,3883527.88,6266.0,0.6953,6062437.22,6925.0,0.6947,8984269.84,8312.0,0.7149
Cumberland Council,Cockermouth Library Link,-3.365955,54.663866,destination,361023.25,1258.0,1.0,1462877.43,3666.0,1.0,3172847.74,6966.0,1.0,5297755.5,8697.0,0.9486,8477576.78,8924.0,0.9715,11494097.48,9070.0,0.9147
Cumberland Council,Denton Holme Library Link,-2.941287,54.886822,destination,319803.41,2114.0,0.9162,1215296.21,5648.0,0.8704,2886418.17,11177.0,0.9188,5168016.44,19054.0,0.9253,8266060.78,29884.0,0.9472,12154859.73,39337.0,0.9673
Cumberland Council,Distington Library Link,-3.540738,54.597515,destination,260862.54,638.0,0.7473,877214.51,1377.0,0.6283,2468435.45,1626.0,0.7857,4891777.48,1851.0,0.8759,7146411.6,2026.0,0.8189,10504571.85,2510.0,0.8359
Cumberland Council,Egremont Library,-3.529318,54.484377,destination,290058.82,984.0,0.831,1329403.46,3655.0,0.9521,2951303.47,5291.0,0.9394,4776557.95,6351.0,0.8552,7057040.21,6455.0,0.8087,9713655.52,7306.0,0.773
Cumberland Council,Frizington Library,-3.490382,54.544497,destination,198327.18,490.0,0.5682,576506.15,1574.0,0.4129,1333547.79,1839.0,0.4245,3242769.69,2338.0,0.5806,4574809.61,2764.0,0.5242,5611081.99,3097.0,0.4465
Cumberland Council,Gosforth Village Library Link,-3.437463,54.418607,destination,276929.24,365.0,0.7933,1365244.72,779.0,0.9778,2734424.71,909.0,0.8704,4500284.02,992.0,0.8058,6132390.45,1000.0,0.7027,11038222.01,1016.0,0.8784
Cumberland Council,Harraby Library Link,-2.890999,54.88108,destination,282490.41,1282.0,0.8093,1049222.62,4998.0,0.7515,2042472.69,8351.0,0.6501,3570891.12,12804.0,0.6394,5157961.79,16663.0,0.5911,6880476.05,19159.0,0.5475
Cumberland Council,Keswick Library,-3.140174,54.601511,destination,368224.49,976.0,1.0,1538348.08,2474.0,1.0,3225174.24,3751.0,1.0,5242602.72,4618.0,0.9387,7519912.42,5259.0,0.8617,10547363.97,5403.0,0.8393
Cumberland Council,Longtown,-2.966996,55.010336,destination,173393.25,737.0,0.4967,1083702.83,1994.0,0.7761,2168710.22,2056.0,0.6903,3021322.2,2083.0,0.541,4409339.63,2097.0,0.5053,7248910.41,2181.0,0.5768
Cumberland Council,Maryport Library,-3.494496,54.713919,destination,313814.87,1325.0,0.899,1344121.89,4313.0,0.9627,2875198.23,8032.0,0.9152,4429255.92,9627.0,0.7931,6123344.91,9714.0,0.7017,7889162.11,9780.0,0.6278
Cumberland Council,Millom Library,-3.26967,54.213731,destination,156672.53,493.0,0.4488,971649.8,3069.0,0.6959,2410161.89,5612.0,0.7672,3786627.82,5819.0,0.678,5992183.98,6009.0,0.6867,7988235.3,6262.0,0.6357
Cumberland Council,Morton Library Link,-2.963658,54.885368,destination,308361.24,868.0,0.8834,1315145.09,5316.0,0.9419,2926685.76,13230.0,0.9316,5041159.03,21293.0,0.9026,7466098.63,27614.0,0.8556,10357837.98,29847.0,0.8243
Cumberland Council,Seascale Library Link,-3.479867,54.396973,destination,233636.95,296.0,0.6693,994317.64,1310.0,0.7121,1945990.36,1685.0,0.6194,2442224.08,1696.0,0.4373,3384998.99,1725.0,0.3879,4729742.0,1751.0,0.3764
Cumberland Council,Seaton Library,-3.52593,54.661785,destination,282739.2,1212.0,0.81,1265033.46,3822.0,0.906,2493395.79,4394.0,0.7937,3837805.07,4906.0,0.6872,4962911.48,4968.0,0.5687,7252841.68,5539.0,0.5772
Cumberland Council,Silloth Library,-3.384774,54.871743,destination,334189.99,757.0,0.9574,945313.66,1252.0,0.677,1864635.11,2179.0,0.5935,2687324.81,2491.0,0.4812,3711220.28,2674.0,0.4253,5739752.37,2814.0,0.4568
Cumberland Council,Whitehaven Library,-3.585687,54.546422,destination,301172.46,1161.0,0.8628,1062228.65,2846.0,0.7608,2232549.69,5566.0,0.7106,4153479.11,10699.0,0.7437,6527418.51,15639.0,0.748,9071340.82,20707.0,0.7219
Cumberland Council,Wigton Library,-3.160532,54.824261,destination,347639.8,887.0,0.9959,1378984.88,2366.0,0.9876,2945872.64,5061.0,0.9377,5911010.05,5937.0,1.0,8593810.66,6057.0,0.9848,11411226.21,6134.0,0.9081
Cumberland Council,Workington Library,-3.549285,54.642793,destination,356449.63,2002.0,1.0,1471494.44,7059.0,1.0,3103791.08,9937.0,0.988,5343348.45,13827.0,0.9567,8248794.44,18333.0,0.9452,11222401.88,20802.0,0.8931
Darlington Borough Council,Cockerton Library,-1.578659,54.533474,destination,309731.73,1120.0,0.8873,1480886.31,7200.0,1.0,3340888.5,16319.0,1.0,5942234.41,27753.0,1.0,9041574.63,36302.0,1.0,12593646.83,43457.0,1.0
Darlington Borough Council,Darlington Library,-1.552515,54.526082,destination,339723.14,457.0,0.9732,1383857.26,4570.0,0.9911,3418766.69,14866.0,1.0,6395696.46,28246.0,1.0,10194930.85,43674.0,1.0,14582278.43,58075.0,1.0
Derby City Council,Allenton,-1.4496331,52.8887964,destination,315220.34,1887.0,0.903,1325885.01,6738.0,0.9496,3237624.59,13548.0,1.0,5811035.3,23359.0,1.0,8829810.12,34952.0,1.0,12378808.54,45396.0,0.9851
Derby City Council,Allestree,-1.4970288,52.9442764,destination,311945.85,1345.0,0.8937,1284011.99,5469.0,0.9196,2802523.86,9610.0,0.8921,5283321.53,16073.0,0.946,7862082.57,19884.0,0.9009,11028690.73,26512.0,0.8776
Derby City Council,Alvaston,-1.4299842,52.8971645,destination,377516.84,2090.0,1.0,1546236.31,7579.0,1.0,3444855.08,16266.0,1.0,5956175.74,24094.0,1.0,8816969.04,30706.0,1.0,11314665.43,35667.0,0.9004
Derby City Council,Blagreaves,-1.4998484,52.8885093,destination,254888.38,1746.0,0.7302,1230355.8,6638.0,0.8812,2783028.9,13641.0,0.8859,4803214.74,23031.0,0.86,7416150.98,32342.0,0.8498,10515627.7,47762.0,0.8368
Derby City Council,Chellaston,-1.4377217,52.8680168,destination,306449.0,909.0,0.8779,1273111.33,5368.0,0.9118,2988251.41,11420.0,0.9512,4957885.07,13417.0,0.8877,7482379.92,15502.0,0.8574,10419049.63,19359.0,0.8291
Derby City Council,Derwent Community Library,-1.448517,52.9309398,destination,308109.68,1556.0,0.8827,1296307.09,6974.0,0.9284,2963110.03,14398.0,0.9432,5034116.62,21176.0,0.9014,7701809.04,29030.0,0.8826,11370766.38,39607.0,0.9049
Derby City Council,Mackworth,-1.5174848,52.9284718,destination,362011.96,1623.0,1.0,1405082.14,5195.0,1.0,2915946.05,9416.0,0.9282,4744749.65,13404.0,0.8495,7569362.46,18472.0,0.8674,10547724.77,29690.0,0.8394
Derby City Council,Mickleover,-1.5453663,52.9047242,destination,350870.47,1469.0,1.0,1358345.22,5367.0,0.9728,3059603.13,9994.0,0.9739,5460793.89,15762.0,0.9778,8435514.52,20478.0,0.9666,11816915.39,24873.0,0.9404
Derby City Council,Normanton,-1.4849284,52.905064,destination,324847.68,4983.0,0.9306,1478896.27,16444.0,1.0,3213900.03,30433.0,1.0,5618249.42,44373.0,1.0,8755238.19,58495.0,1.0,12439056.02,72143.0,0.9899
Derby City Council,Phillip Whitehead Memorial Library,-1.4328973,52.9271945,destination,359980.48,833.0,1.0,1375624.04,5314.0,0.9852,3086808.28,13211.0,0.9826,5296841.03,20073.0,0.9484,8017355.3,28984.0,0.9187,11507120.48,38860.0,0.9157
Derby City Council,Riverside Library,-1.4740333,52.9231926,destination,381399.01,455.0,1.0,1589712.17,3616.0,1.0,3696332.88,14271.0,1.0,6725499.47,28498.0,1.0,10665864.87,47801.0,1.0,15569907.95,68426.0,1.0
Derby City Council,Sinfin,-1.493804,52.8777029,destination,352770.38,1596.0,1.0,1442251.09,7856.0,1.0,2960814.25,13067.0,0.9425,4124671.74,15578.0,0.7385,5841883.25,20368.0,0.6694,8472950.77,24826.0,0.6743
Derby City Council,Spondon,-1.4048224,52.9201979,destination,335158.46,1456.0,0.9602,1368299.8,6044.0,0.98,3080791.0,10889.0,0.9806,5079947.02,14324.0,0.9096,7023684.22,18330.0,0.8049,9654051.89,20531.0,0.7682
Derby City Council,Springwood (In the Springwood Sports Centre),-1.4316455,52.9429481,destination,300771.06,1004.0,0.8616,1337798.61,6258.0,0.9581,2878302.02,13790.0,0.9162,4594200.66,20003.0,0.8226,6814423.07,26375.0,0.7809,10550048.21,32870.0,0.8395
Derbyshire County Council,Alfreton,-1.388164,53.096679,destination,341452.43,1133.0,0.9782,1505415.42,4246.0,1.0,3105681.26,7356.0,0.9886,5331545.65,8452.0,0.9546,7755375.62,8908.0,0.8887,10785986.74,11058.0,0.8583
Derbyshire County Council,Ashbourne,-1.731541,53.014718,destination,374697.32,1388.0,1.0,1488426.66,4381.0,1.0,3461707.24,7733.0,1.0,5928394.3,8558.0,1.0,9183352.83,9008.0,1.0,12162705.46,9398.0,0.9679
Derbyshire County Council,Bakewell,-1.674093,53.212657,destination,354662.52,1001.0,1.0,1437474.89,2520.0,1.0,3429323.05,3709.0,1.0,6239238.23,3982.0,1.0,8354133.19,4007.0,0.9573,10093054.14,4068.0,0.8032
Derbyshire County Council,Belper,-1.48717,53.022906,destination,134996.59,334.0,0.3867,753360.86,2474.0,0.5396,1955337.54,5541.0,0.6224,3902360.64,10468.0,0.6987,6742617.74,13606.0,0.7726,9928364.34,18339.0,0.7901
Derbyshire County Council,Bolsover,-1.291379,53.228255,destination,317382.56,537.0,0.9092,1491184.71,4465.0,1.0,3375823.89,9805.0,1.0,5688646.75,11192.0,1.0,7890768.39,11391.0,0.9042,10807554.55,11707.0,0.86
Derbyshire County Council,Borrowash,-1.38113,52.90802,destination,313182.61,991.0,0.8972,1107965.05,3380.0,0.7935,2603062.87,6304.0,0.8286,4939715.92,7981.0,0.8845,7412236.83,10812.0,0.8494,10596358.48,13926.0,0.8432
Derbyshire County Council,Brimington,-1.395708,53.257173,destination,382709.38,1943.0,1.0,1450236.28,6128.0,1.0,2943364.0,8605.0,0.9369,5843212.73,11467.0,1.0,9190467.84,15005.0,1.0,13340599.92,23849.0,1.0
Derbyshire County Council,Buxton,-1.907889,53.252329,destination,205477.07,1227.0,0.5886,969327.64,4963.0,0.6942,2610705.28,7869.0,0.831,4820666.05,14167.0,0.8631,7807116.85,19727.0,0.8946,10770754.29,21146.0,0.8571
Derbyshire County Council,Chapel en le Frith,-1.913892,53.323534,destination,402772.87,957.0,1.0,1520876.63,4504.0,1.0,3420692.58,6467.0,1.0,5918721.4,6792.0,1.0,8872202.84,7059.0,1.0,13095775.06,7457.0,1.0
Derbyshire County Council,Chesterfield,-1.428016,53.234571,destination,355050.29,243.0,1.0,1487682.76,2548.0,1.0,3492539.59,10606.0,1.0,6462812.55,19614.0,1.0,10291470.37,31416.0,1.0,14732624.58,43809.0,1.0
Derbyshire County Council,Clay Cross,-1.423142,53.167842,destination,291261.59,269.0,0.8344,1285720.26,1932.0,0.9208,3135585.53,4085.0,0.9981,5798512.97,6648.0,1.0,8588927.31,9045.0,0.9842,12176348.17,10451.0,0.969
Derbyshire County Council,Clowne,-1.265531,53.27774,destination,69387.47,308.0,0.1988,734541.7,1865.0,0.5261,2159353.67,5702.0,0.6873,4200066.41,7707.0,0.752,6773211.36,8775.0,0.7762,10058712.47,9888.0,0.8004
Derbyshire County Council,Creswell,-1.214228,53.263623,destination,295521.38,1472.0,0.8466,1311152.79,3477.0,0.939,2447795.63,5312.0,0.7792,4009178.38,5568.0,0.7178,6364057.79,5747.0,0.7293,9726342.84,6342.0,0.774
Derbyshire County Council,Dronfield,-1.475084,53.302357,destination,297753.43,441.0,0.853,1370532.38,4080.0,0.9816,3311971.08,10503.0,1.0,5631268.12,15332.0,1.0,9223681.43,19879.0,1.0,13261938.23,23495.0,1.0
Derbyshire County Council,Duffield,-1.490624,52.985202,destination,346560.45,1170.0,0.9928,1315243.84,3404.0,0.942,2639665.91,4500.0,0.8402,4606464.78,5043.0,0.8248,6361686.89,5443.0,0.729,9464366.74,5934.0,0.7532
Derbyshire County Council,Eckington,-1.356345,53.309245,destination,204452.72,599.0,0.5857,1107502.43,2676.0,0.7932,2779436.59,4581.0,0.8847,4765475.62,6993.0,0.8533,7575217.47,10916.0,0.8681,11307044.73,14771.0,0.8998
Derbyshire County Council,Etwall,-1.602521,52.881315,destination,333183.53,1116.0,0.9545,1157186.75,2439.0,0.8288,2585762.88,2527.0,0.8231,4344708.74,2629.0,0.7779,6605723.83,2747.0,0.757,9681107.45,3980.0,0.7704
Derbyshire County Council,Gamesley,-1.985868,53.447543,destination,337935.25,2481.0,0.9681,1039637.1,3366.0,0.7446,2223886.04,4260.0,0.7079,5008536.48,6716.0,0.8968,8407047.5,12873.0,0.9634,12395538.07,21317.0,0.9864
